[
  {
    "code": "AAA",
    "latitude": "-17.3595",
    "longitude": "-145.494",
    "name": "Anaa Airport",
    "city": "Anaa",
    "state": "Tuamotu-Gambier",
    "country": "French Polynesia"
  },
  {
    "code": "AAE",
    "latitude": "36.8236",
    "longitude": "7.8103",
    "name": "El Mellah Airport",
    "city": "El Tarf",
    "state": "Annaba",
    "country": "Algeria"
  },
  {
    "code": "AAL",
    "latitude": "57.0952",
    "longitude": "9.85606",
    "name": "Aalborg Airport",
    "city": "Norresundby",
    "state": "Nordjylland",
    "country": "Denmark",
    "url": "http:\/\/www.aal.dk\/"
  },
  {
    "code": "AAM",
    "latitude": "-24.8",
    "longitude": "31.5333",
    "name": "Mala Mala",
    "city": "Mala Mala",
    "state": "",
    "country": "South Africa"
  },
  {
    "code": "AAN",
    "latitude": "24.25",
    "longitude": "55.75",
    "name": "Al Ain Airport",
    "city": "Ayn al Faydah",
    "state": "Abu Dhabi",
    "country": "United Arab Emirates"
  },
  {
    "code": "AAQ",
    "latitude": "44.9",
    "longitude": "37.3167",
    "name": "Olkhovka Airport",
    "city": "Novorossiysk",
    "state": "Krasnodarskiy Kray",
    "country": "Russia"
  },
  {
    "code": "AAR",
    "latitude": "56.3088",
    "longitude": "10.6154",
    "name": "Tirstrup Airport",
    "city": "Kolind",
    "state": "Midtjylland",
    "country": "Denmark",
    "phone": "+45 8775 7000",
    "url": "http:\/\/www.aar.dk"
  },
  {
    "code": "AAT",
    "latitude": "47.7406",
    "longitude": "88.0845",
    "name": "Altay Airport",
    "city": "Altay",
    "state": "Xinjiang",
    "country": "China"
  },
  {
    "code": "AAX",
    "latitude": "-19.5603",
    "longitude": "-46.9653",
    "name": "Romeu Zuma Airport",
    "city": "Arax\u00e1",
    "state": "Minas Gerais",
    "country": "Brazil"
  },
  {
    "code": "AAY",
    "latitude": "16.1947",
    "longitude": "52.1694",
    "name": "Al Gaidah Airport",
    "city": "Al Ghaydah",
    "state": "Hadramawt",
    "country": "Yemen"
  },
  {
    "code": "ABA",
    "latitude": "53.7167",
    "longitude": "91.4333",
    "name": "Abakan",
    "city": "Abakan",
    "state": "Khakasiya",
    "country": "Russian Federation"
  },
  {
    "code": "ABC",
    "latitude": "38.9833",
    "longitude": "-1.85",
    "name": "Los Llanos",
    "city": "Albacete",
    "state": "Castilla-la Mancha",
    "country": "Spain"
  },
  {
    "code": "ABD",
    "latitude": "30.3374",
    "longitude": "48.3032",
    "name": "",
    "city": "Abadan",
    "state": "Khuzestan",
    "country": "Iran"
  },
  {
    "code": "ABE",
    "latitude": "40.6514",
    "longitude": "-75.4342",
    "name": "Lehigh Valley International Airport",
    "city": "Allentown",
    "state": "Pennsylvania",
    "country": "United States",
    "phone": "610-266-6000",
    "url": "http:\/\/www.lvia.org\/"
  },
  {
    "code": "ABI",
    "latitude": "32.4164",
    "longitude": "-99.6803",
    "name": "Abilene Regional Airport",
    "city": "Abilene",
    "state": "Texas",
    "country": "United States"
  },
  {
    "code": "ABJ",
    "latitude": "5.2556",
    "longitude": "-3.9292",
    "name": "Abidjan Port Bouet Airport",
    "city": "Abidjan",
    "state": "Abidjan",
    "country": "Ivory Coast"
  },
  {
    "code": "ABK",
    "latitude": "6.73719",
    "longitude": "44.2797",
    "name": "Kabri Dar",
    "city": "Kabri Dar",
    "state": "Ogaden",
    "country": "Ethiopia"
  },
  {
    "code": "ABL",
    "latitude": "67.1058",
    "longitude": "-157.854",
    "name": "Ambler Airport",
    "city": "Kiana",
    "state": "Alaska",
    "country": "United States"
  },
  {
    "code": "ABM",
    "latitude": "-10.9438",
    "longitude": "142.453",
    "name": "Bamaga Airport",
    "city": "Seisia",
    "state": "Queensland",
    "country": "Australia"
  },
  {
    "code": "ABQ",
    "latitude": "35.0494",
    "longitude": "-106.625",
    "name": "Albuquerque International Airport",
    "city": "Albuquerque",
    "state": "New Mexico",
    "country": "United States"
  },
  {
    "code": "ABR",
    "latitude": "45.4536",
    "longitude": "-98.4189",
    "name": "Aberdeen Regional Airport",
    "city": "Aberdeen",
    "state": "South Dakota",
    "country": "United States"
  },
  {
    "code": "ABS",
    "latitude": "22.3722",
    "longitude": "31.6125",
    "name": "Abu Simbel Airport",
    "city": "Abu Simbel",
    "state": "Aswan",
    "country": "Egypt"
  },
  {
    "code": "ABT",
    "latitude": "20.2961",
    "longitude": "41.6342",
    "name": "Al Baha Airport",
    "city": "Al Aqiq",
    "state": "Al Baha",
    "country": "Saudi Arabia"
  },
  {
    "code": "ABV",
    "latitude": "9.0056",
    "longitude": "7.2661",
    "name": "Abuja International Airport",
    "city": "Gwagwa",
    "state": "Abuja Capital Territory",
    "country": "Nigeria"
  },
  {
    "code": "ABX",
    "latitude": "-36.0678",
    "longitude": "146.956",
    "name": "Albury Airport",
    "city": "Albury",
    "state": "New South Wales",
    "country": "Australia"
  },
  {
    "code": "ABY",
    "latitude": "31.5328",
    "longitude": "-84.1867",
    "name": "Southwest Georgia Regional Airport",
    "city": "Albany",
    "state": "Georgia",
    "country": "United States"
  },
  {
    "code": "ABZ",
    "latitude": "57.2004",
    "longitude": "-2.20373",
    "name": "Aberdeen Dyce International Airport",
    "city": "Aberdeen",
    "state": "Scotland",
    "country": "United Kingdom",
    "url": "http:\/\/www.aberdeenairport.com\/"
  },
  {
    "code": "ACA",
    "latitude": "16.7561",
    "longitude": "-99.7536",
    "name": "General Juan N Alvarez International Airport",
    "city": "Acapulco",
    "state": "Guerrero",
    "country": "Mexico",
    "phone": "52-748-66-93-23"
  },
  {
    "code": "ACC",
    "latitude": "5.5964",
    "longitude": "-0.17",
    "name": "Kotoka International Airport",
    "city": "Accra",
    "state": "Greater Accra",
    "country": "Ghana",
    "url": "http:\/\/www.gcaa.com.gh\/index.html"
  },
  {
    "code": "ACE",
    "latitude": "28.9521",
    "longitude": "-13.6085",
    "name": "Arrecife Airport",
    "city": "San Bartolom\u00e9",
    "state": "Canary Islands",
    "country": "Spain"
  },
  {
    "code": "ACH",
    "latitude": "47.4887",
    "longitude": "9.55376",
    "name": "Altenrhein Airport",
    "city": "Altenrhein",
    "state": "Canton of St. Gallen",
    "country": "Switzerland",
    "url": "http:\/\/www.airport-stgallen.com\/"
  },
  {
    "code": "ACI",
    "latitude": "49.7134",
    "longitude": "-2.22089",
    "name": "The Blaye Airport",
    "city": "St. Peter Port",
    "state": "Channel Islands",
    "country": "United Kingdom"
  },
  {
    "code": "ACK",
    "latitude": "41.2568",
    "longitude": "-70.0649",
    "name": "Nantucket Memorial Airport",
    "city": "Nantucket",
    "state": "Massachusetts",
    "country": "United States"
  },
  {
    "code": "ACP",
    "latitude": "68.1609",
    "longitude": "-151.696",
    "name": "Sahand Airport",
    "city": "Sahand",
    "state": "",
    "country": "Iran"
  },
  {
    "code": "ACS",
    "latitude": "47.7006",
    "longitude": "18.0064",
    "name": "",
    "city": "Achinsk",
    "state": "Krasnoyarskiy Kray",
    "country": "Russia"
  },
  {
    "code": "ACT",
    "latitude": "31.609",
    "longitude": "-97.2234",
    "name": "Waco Regional Airport",
    "city": "Waco",
    "state": "Texas",
    "country": "United States"
  },
  {
    "code": "ACV",
    "latitude": "40.9698",
    "longitude": "-124.108",
    "name": "Arcata Airport",
    "city": "Mckinleyville",
    "state": "California",
    "country": "United States"
  },
  {
    "code": "ACX",
    "latitude": "25.0887",
    "longitude": "104.89",
    "name": "Xingyi",
    "city": "Xingyi",
    "state": "Guizhou",
    "country": "China"
  },
  {
    "code": "ACY",
    "latitude": "39.4512",
    "longitude": "-74.5716",
    "name": "Atlantic City International Airport",
    "city": "Egg Harbor City",
    "state": "New Jersey",
    "country": "United States"
  },
  {
    "code": "ACZ",
    "latitude": "31.0385",
    "longitude": "61.4962",
    "name": "Zabol A\/P",
    "city": "Zabol",
    "state": "Sistan va Baluchestan",
    "country": "Iran"
  },
  {
    "code": "ADA",
    "latitude": "36.9811",
    "longitude": "35.2803",
    "name": "Sakirpasa Airport",
    "city": "Adana",
    "state": "Adana",
    "country": "Turkey"
  },
  {
    "code": "ADB",
    "latitude": "38.32",
    "longitude": "27.1603",
    "name": "Gaziemir Airport",
    "city": "Azmir",
    "state": "\u0130zmir",
    "country": "Turkey"
  },
  {
    "code": "ADD",
    "latitude": "8.9783",
    "longitude": "38.8011",
    "name": "Bole International Airport",
    "city": "Addis Ababa",
    "state": "Debub Shewa",
    "country": "Ethiopia"
  },
  {
    "code": "ADE",
    "latitude": "12.8278",
    "longitude": "45.0306",
    "name": "Aden International Airport",
    "city": "Ash Shaykh Uthman",
    "state": "`Adan",
    "country": "Yemen"
  },
  {
    "code": "ADF",
    "latitude": "37.8099",
    "longitude": "38.3357",
    "name": "Adiyaman Airport",
    "city": "Adiyaman",
    "state": "Ad\u0131yaman",
    "country": "Turkey"
  },
  {
    "code": "ADJ",
    "latitude": "31.973",
    "longitude": "35.9822",
    "name": "Al Matar Airport",
    "city": "Amman",
    "state": "'Amman",
    "country": "Jordan"
  },
  {
    "code": "ADK",
    "latitude": "51.88",
    "longitude": "-176.639",
    "name": "Adak Airport",
    "city": "Adak",
    "state": "Alaska",
    "country": "United States"
  },
  {
    "code": "ADL",
    "latitude": "-34.9464",
    "longitude": "138.529",
    "name": "Adelaide International Airport",
    "city": "Adelaide",
    "state": "South Australia",
    "country": "Australia",
    "url": "http:\/\/www.aal.com.au"
  },
  {
    "code": "ADQ",
    "latitude": "57.7545",
    "longitude": "-152.512",
    "name": "Kodiak Airport",
    "city": "Kodiak",
    "state": "Alaska",
    "country": "United States"
  },
  {
    "code": "ADU",
    "latitude": "38.2465",
    "longitude": "48.2951",
    "name": "Ardabil Airport",
    "city": "Ardabil",
    "state": "Ardabil",
    "country": "Iran"
  },
  {
    "code": "ADX",
    "latitude": "56.377",
    "longitude": "-2.86117",
    "name": "Leuchars Airport",
    "city": "St. Andrews",
    "state": "Scotland",
    "country": "United Kingdom"
  },
  {
    "code": "ADZ",
    "latitude": "12.5811",
    "longitude": "-81.7092",
    "name": "Sesquicentenario Airport",
    "city": "San Andr\u00e9s",
    "state": "San Andres y Providencia",
    "country": "Colombia"
  },
  {
    "code": "AEH",
    "latitude": "13.8486",
    "longitude": "20.8472",
    "name": "Abeche Airport",
    "city": "Ab\u00e9ch\u00e9",
    "state": "Ouaddai",
    "country": "Chad"
  },
  {
    "code": "AEP",
    "latitude": "-34.5617",
    "longitude": "-58.4113",
    "name": "Aeroparque Jorge Newbery",
    "city": "Buenos Aires",
    "state": "Ciudad de Buenos Aires",
    "country": "Argentina",
    "phone": "(54 11) 5480 6111",
    "url": "http:\/\/www.aa2000.com.ar"
  },
  {
    "code": "AER",
    "latitude": "43.447",
    "longitude": "39.9552",
    "name": "Adler Airport",
    "city": "Sochi",
    "state": "Krasnodarskiy Kray",
    "country": "Russia"
  },
  {
    "code": "AES",
    "latitude": "62.5607",
    "longitude": "6.11129",
    "name": "Vigra Airport",
    "city": "Vigra",
    "state": "More og Romsdal",
    "country": "Norway",
    "phone": "+47 70 11 48 00"
  },
  {
    "code": "AET",
    "latitude": "66.55",
    "longitude": "-152.65",
    "name": "Allakaket Airport",
    "city": "Allakaket",
    "state": "Alaska",
    "country": "United States"
  },
  {
    "code": "AEX",
    "latitude": "31.323",
    "longitude": "-92.5417",
    "name": "Alexandria International Airport",
    "city": "Alexandria",
    "state": "Louisiana",
    "country": "United States"
  },
  {
    "code": "AEY",
    "latitude": "65.6561",
    "longitude": "-18.0923",
    "name": "Akureyri Airport",
    "city": "Akureyri",
    "state": "Akureyri",
    "country": "Iceland"
  },
  {
    "code": "AFA",
    "latitude": "-34.5886",
    "longitude": "-68.4028",
    "name": "San Rafael Airport",
    "city": "San Rafael",
    "state": "Mendoza",
    "country": "Argentina"
  },
  {
    "code": "AFL",
    "latitude": "-9.8661",
    "longitude": "-56.1044",
    "name": "Alta Floresta Airport",
    "city": "Alta Floresta",
    "state": "Mato Grosso",
    "country": "Brazil"
  },
  {
    "code": "AFS",
    "latitude": "41.6136",
    "longitude": "64.2331",
    "name": "Zarafshan Airport",
    "city": "Zarafshan",
    "state": "Nawoiy",
    "country": "Uzbekistan"
  },
  {
    "code": "AFT",
    "latitude": "-9.18333",
    "longitude": "160.95",
    "name": "Afutara Aerodrome",
    "city": "Afutara",
    "state": "Malaita",
    "country": "Solomon Islands"
  },
  {
    "code": "AFZ",
    "latitude": "36.1903",
    "longitude": "57.7094",
    "name": "Sabzevar Airport",
    "city": "Sabzevar",
    "state": "Khorasan",
    "country": "Iran"
  },
  {
    "code": "AGA",
    "latitude": "30.3833",
    "longitude": "-9.55",
    "name": "Almassira Airport",
    "city": "Agadir",
    "state": "Agadir",
    "country": "Morocco"
  },
  {
    "code": "AGF",
    "latitude": "44.1736",
    "longitude": "0.59223",
    "name": "La Garenne Airport",
    "city": "Laplume",
    "state": "Aquitaine",
    "country": "France"
  },
  {
    "code": "AGH",
    "latitude": "56.2873",
    "longitude": "12.8675",
    "name": "Angelholm Airport",
    "city": "Angelholm",
    "state": "Skane",
    "country": "Sweden",
    "url": "http:\/\/www.lfv.se\/templates\/LFV_AirportStartPage____4777.aspx"
  },
  {
    "code": "AGL",
    "latitude": "-9.33333",
    "longitude": "149.15",
    "name": "Wanigela",
    "city": "Wanigela",
    "state": "Northern",
    "country": "Papua New Guinea"
  },
  {
    "code": "AGM",
    "latitude": "65.6667",
    "longitude": "-37.6667",
    "name": "Angmagssalik Airport",
    "city": "Angmassalik",
    "state": "Ostgronland",
    "country": "Greenland"
  },
  {
    "code": "AGN",
    "latitude": "57.4996",
    "longitude": "-134.577",
    "name": "Angoon Airport",
    "city": "Angoon",
    "state": "Alaska",
    "country": "United States",
    "runway_length": null
  },
  {
    "code": "AGP",
    "latitude": "36.6749",
    "longitude": "-4.49298",
    "name": "Malaga Airport",
    "city": "Malaga",
    "state": "Andalucia",
    "country": "Spain",
    "phone": "+34 952 048 838",
    "url": "http:\/\/www.aena.es\/csee\/Satellite?cid=1048858947193&pagename=Est"
  },
  {
    "code": "AGR",
    "latitude": "27.1632",
    "longitude": "77.9788",
    "name": "Agra Airport",
    "city": "Agra",
    "state": "Uttar Pradesh",
    "country": "India"
  },
  {
    "code": "AGS",
    "latitude": "33.3735",
    "longitude": "-81.9732",
    "name": "Bush Field Airport",
    "city": "Augusta",
    "state": "Georgia",
    "country": "United States"
  },
  {
    "code": "AGT",
    "latitude": "-25.5266",
    "longitude": "-54.6226",
    "name": "Alejo Garcia Airport",
    "city": "Presidente Franco",
    "state": "Alto Paran\u00e1",
    "country": "Paraguay"
  },
  {
    "code": "AGU",
    "latitude": "21.7047",
    "longitude": "-102.317",
    "name": "Aguascalientes Airport",
    "city": "Aguascalientes",
    "state": "Aguascalientes",
    "country": "Mexico"
  },
  {
    "code": "AGV",
    "latitude": "9.55194",
    "longitude": "-69.2367",
    "name": "Acarigua",
    "city": "Acarigua",
    "state": "Portuguesa",
    "country": "Venezuela"
  },
  {
    "code": "AGX",
    "latitude": "10.8415",
    "longitude": "72.175",
    "name": "Agatti Island Airport",
    "city": "Agatti Island",
    "state": "Lakshadweep",
    "country": "India",
    "phone": "+91 4894-42217"
  },
  {
    "code": "AHB",
    "latitude": "18.24",
    "longitude": "42.6556",
    "name": "Abha Airport",
    "city": "Hajlah",
    "state": "Asir",
    "country": "Saudi Arabia"
  },
  {
    "code": "AHC",
    "latitude": "40.2664",
    "longitude": "-120.151",
    "name": "Amedee Army Air Field",
    "city": "Herlong",
    "state": "California",
    "country": "United States",
    "type": "Military Airport"
  },
  {
    "code": "AHE",
    "latitude": "-14.5",
    "longitude": "-1.3",
    "name": "Ahe Airport",
    "city": "Ahe",
    "state": "Tuamotu-Gambier",
    "country": "French Polynesia"
  },
  {
    "code": "AHO",
    "latitude": "40.6319",
    "longitude": "8.29279",
    "name": "Alghero Airport",
    "city": "Alghero",
    "state": "Sardinia",
    "country": "Italy"
  },
  {
    "code": "AHS",
    "latitude": "15.4534",
    "longitude": "-84.4041",
    "name": "Ahuas Airport",
    "city": "Auas",
    "state": "Gracias a Dios",
    "country": "Honduras"
  },
  {
    "code": "AHU",
    "latitude": "35.1781",
    "longitude": "-3.8383",
    "name": "Cote du Rif Airport",
    "city": "Al Hoceima",
    "state": "Al Hoceima",
    "country": "Morocco"
  },
  {
    "code": "AIA",
    "latitude": "42.0622",
    "longitude": "-102.81",
    "name": "Alliance Municipal Airport",
    "city": "Alliance",
    "state": "Nebraska",
    "country": "United States"
  },
  {
    "code": "AIN",
    "latitude": "70.6139",
    "longitude": "-159.857",
    "name": "Wainwright Airport",
    "city": "Wainwright",
    "state": "Alaska",
    "country": "United States"
  },
  {
    "code": "AIT",
    "latitude": "-18.8299",
    "longitude": "-159.765",
    "name": "Aitutaki Airport",
    "city": "Aitutaki",
    "state": "Aitutaki",
    "country": "Cook Islands"
  },
  {
    "code": "AIU",
    "latitude": "-20.0333",
    "longitude": "-158.1",
    "name": "Atiu Island",
    "city": "Atiu Island",
    "state": "Atiu",
    "country": "Cook Islands"
  },
  {
    "code": "AJA",
    "latitude": "41.9204",
    "longitude": "8.79778",
    "name": "Campo Dell Oro Airport",
    "city": "Ajaccio",
    "state": "Corsica",
    "country": "France"
  },
  {
    "code": "AJF",
    "latitude": "29.7897",
    "longitude": "40.1039",
    "name": "Al Jouf Airport",
    "city": "Sakakah",
    "state": "Al Jawf",
    "country": "Saudi Arabia"
  },
  {
    "code": "AJI",
    "latitude": "39.7239",
    "longitude": "43.0618",
    "name": "Agri Airport",
    "city": "Agr\u0131",
    "state": "A\u011fr\u0131",
    "country": "Turkey"
  },
  {
    "code": "AJL",
    "latitude": "23.7361",
    "longitude": "92.8083",
    "name": "Aizwal Airport",
    "city": "Aizawl",
    "state": "Mizoram",
    "country": "India"
  },
  {
    "code": "AJN",
    "latitude": "-12.2234",
    "longitude": "44.3709",
    "name": "Comoros",
    "city": "Anjouan",
    "state": "Anjouan",
    "country": "Comoros"
  },
  {
    "code": "AJR",
    "latitude": "65.592",
    "longitude": "19.2647",
    "name": "Arvidsjaur Airport",
    "city": "Arvidsjaur",
    "state": "Norrbotten",
    "country": "Sweden"
  },
  {
    "code": "AJU",
    "latitude": "-10.985",
    "longitude": "-37.0733",
    "name": "Santa Maria Airport",
    "city": "Aracaju",
    "state": "Sergipe",
    "country": "Brazil"
  },
  {
    "code": "AKA",
    "latitude": "32.7026",
    "longitude": "108.912",
    "name": "Ankang Airport",
    "city": "Ankang",
    "state": "Shaanxi",
    "country": "China"
  },
  {
    "code": "AKB",
    "latitude": "52.2217",
    "longitude": "-174.204",
    "name": "Atka Airport",
    "city": "Atka",
    "state": "Alaska",
    "country": "United States"
  },
  {
    "code": "AKF",
    "latitude": "24.1819",
    "longitude": "23.3189",
    "name": "Kufra Airport",
    "city": "Kufrah",
    "state": "Al Kufrah",
    "country": "Libya"
  },
  {
    "code": "AKI",
    "latitude": "60.8866",
    "longitude": "-161.218",
    "name": "Akiak Airport",
    "city": "Bethel",
    "state": "Alaska",
    "country": "United States"
  },
  {
    "code": "AKJ",
    "latitude": "43.665",
    "longitude": "142.453",
    "name": "Asahikawa Airport",
    "city": "Asahikawa-shi",
    "state": "Hokkaido Prefecture",
    "country": "Japan"
  },
  {
    "code": "AKK",
    "latitude": "56.95",
    "longitude": "-154.167",
    "name": "Akhiok Airport",
    "city": "Kodiak",
    "state": "Alaska",
    "country": "United States"
  },
  {
    "code": "AKL",
    "latitude": "-37.0085",
    "longitude": "174.782",
    "name": "Auckland International Airport",
    "city": "Manukau City",
    "state": "Auckland",
    "country": "New Zealand",
    "phone": "+64 9 256 8899",
    "url": "http:\/\/www.auckland-airport.co.nz\/"
  },
  {
    "code": "AKN",
    "latitude": "58.6775",
    "longitude": "-156.655",
    "name": "King Salmon Airport",
    "city": "King Salmon",
    "state": "Alaska",
    "country": "United States"
  },
  {
    "code": "AKP",
    "latitude": "68.1916",
    "longitude": "-151.79",
    "name": "Anaktuvuk Pass Airport",
    "city": "Anaktuvuk Pass",
    "state": "Alaska",
    "country": "United States"
  },
  {
    "code": "AKS",
    "latitude": "-27.6667",
    "longitude": "27.3167",
    "name": "Kroonstad Airport",
    "city": "Kroonstad",
    "state": "Free State",
    "country": "South Africa"
  },
  {
    "code": "AKU",
    "latitude": "41.171",
    "longitude": "80.1982",
    "name": "Aksu Airport",
    "city": "Aksu",
    "state": "Xinjiang",
    "country": "China"
  },
  {
    "code": "AKV",
    "latitude": "60.8142",
    "longitude": "-78.1509",
    "name": "Akulivik Airport",
    "city": "Chisasibi",
    "state": "Quebec",
    "country": "Canada"
  },
  {
    "code": "AKX",
    "latitude": "50.2362",
    "longitude": "57.2115",
    "name": "Aktyubinsk Airport",
    "city": "Aqtobe",
    "state": "Aqtobe",
    "country": "Kazakhstan"
  },
  {
    "code": "AKY",
    "latitude": "20.1303",
    "longitude": "92.8803",
    "name": "Sittwe Airport",
    "city": "Sittwe",
    "state": "Rakhine State",
    "country": "Myanmar"
  },
  {
    "code": "ALA",
    "latitude": "43.3608",
    "longitude": "77.0319",
    "name": "Alma Ata Airport",
    "city": "Almaty",
    "state": "Almaty",
    "country": "Kazakhstan"
  },
  {
    "code": "ALB",
    "latitude": "42.7426",
    "longitude": "-73.809",
    "name": "Albany International Airport",
    "city": "Latham",
    "state": "New York",
    "country": "United States",
    "phone": "518-242-2222",
    "url": "http:\/\/www.albanyairport.com"
  },
  {
    "code": "ALC",
    "latitude": "38.2844",
    "longitude": "-0.5576",
    "name": "Alicante Airport",
    "city": "Elx",
    "state": "Valencia",
    "country": "Spain"
  },
  {
    "code": "ALF",
    "latitude": "69.9793",
    "longitude": "23.3571",
    "name": "Alta Airport",
    "city": "Alta",
    "state": "Finnmark Fylke",
    "country": "Norway"
  },
  {
    "code": "ALG",
    "latitude": "36.6993",
    "longitude": "3.21935",
    "name": "Houari Boumediene Airport",
    "city": "Algiers",
    "state": "Alger",
    "country": "Algeria",
    "url": "http:\/\/www.egsa.dz"
  },
  {
    "code": "ALH",
    "latitude": "-34.9447",
    "longitude": "117.808",
    "name": "Albany Airport",
    "city": "Albany",
    "state": "Western Australia",
    "country": "Australia"
  },
  {
    "code": "ALM",
    "latitude": "32.8407",
    "longitude": "-105.994",
    "name": "Alamogordo White Sands Regional Airport",
    "city": "Alamogordo",
    "state": "New Mexico",
    "country": "United States"
  },
  {
    "code": "ALO",
    "latitude": "42.5509",
    "longitude": "-92.3951",
    "name": "Waterloo Municipal Airport",
    "city": "Waterloo",
    "state": "Iowa",
    "country": "United States"
  },
  {
    "code": "ALP",
    "latitude": "36.1808",
    "longitude": "37.2267",
    "name": "Aleppo International Airport",
    "city": "Djibrine",
    "state": "H'alab",
    "country": "Syria"
  },
  {
    "code": "ALS",
    "latitude": "37.4444",
    "longitude": "-105.865",
    "name": "San Luis Valley Regional Airport",
    "city": "Alamosa",
    "state": "Colorado",
    "country": "United States"
  },
  {
    "code": "ALW",
    "latitude": "46.0879",
    "longitude": "-118.283",
    "name": "Walla Walla Regional Airport",
    "city": "Walla Walla",
    "state": "Washington",
    "country": "United States"
  },
  {
    "code": "ALY",
    "latitude": "31.1845",
    "longitude": "29.9491",
    "name": "An-Nuzhah Airport",
    "city": "Alexandria",
    "state": "Al Iskandariyah",
    "country": "Egypt"
  },
  {
    "code": "ALZ",
    "latitude": "56.8988",
    "longitude": "-154.246",
    "name": "Alitak Seaplane Base",
    "city": "Alitak",
    "state": "Alaska",
    "country": "United States",
    "type": "Sea Plane Base",
    "runway_length": null
  },
  {
    "code": "AMA",
    "latitude": "35.2177",
    "longitude": "-101.706",
    "name": "Amarillo International Airport",
    "city": "Amarillo",
    "state": "Texas",
    "country": "United States"
  },
  {
    "code": "AMD",
    "latitude": "23.0728",
    "longitude": "72.6328",
    "name": "Sardar Vallabhbhai Patel International Airport",
    "city": "Ahmedabad",
    "state": "Gujarat",
    "country": "India"
  },
  {
    "code": "AMH",
    "latitude": "6.01327",
    "longitude": "37.5405",
    "name": "Ethiopia",
    "city": "Arba Mintch",
    "state": "Gamo Gofa",
    "country": "Ethiopia"
  },
  {
    "code": "AMI",
    "latitude": "-8.562",
    "longitude": "116.098",
    "name": "Selaparang",
    "city": "Mataram",
    "state": "Nusa Tenggara Barat",
    "country": "Indonesia"
  },
  {
    "code": "AMM",
    "latitude": "31.7231",
    "longitude": "35.9936",
    "name": "Queen Alia International Airport",
    "city": "Amman",
    "state": "'Amman",
    "country": "Jordan"
  },
  {
    "code": "AMQ",
    "latitude": "-3.7067",
    "longitude": "128.078",
    "name": "Pattimura Airport",
    "city": "Ambon",
    "state": "Maluku",
    "country": "Indonesia"
  },
  {
    "code": "AMS",
    "latitude": "52.3122",
    "longitude": "4.77511",
    "name": "Schiphol Airport",
    "city": "Schiphol Zuid",
    "state": "North Holland",
    "country": "Netherlands",
    "phone": "+31-207940800",
    "url": "http:\/\/www.schiphol.com\/",
    "elev": "-11"
  },
  {
    "code": "AMV",
    "latitude": "69.7638",
    "longitude": "61.5586",
    "name": "Amderma Airport",
    "city": "Nar'yan-Mar",
    "state": "Nenetskiy Avtonomnyy Okrug",
    "country": "Russia"
  },
  {
    "code": "AMY",
    "latitude": "38.4819",
    "longitude": "-100.608",
    "name": "Ambatomainty",
    "city": "Ambatomainty",
    "state": "Fianarantsoa",
    "country": "Madagascar"
  },
  {
    "code": "ANC",
    "latitude": "61.1767",
    "longitude": "-149.961",
    "name": "Anchorage International Airport",
    "city": "Anchorage",
    "state": "Alaska",
    "country": "United States",
    "phone": "(907) 266-2526",
    "url": "http:\/\/www.dot.state.ak.us\/anc\/index.shtml"
  },
  {
    "code": "ANE",
    "latitude": "47.5603",
    "longitude": "-0.312222",
    "name": "A\u00e9roport d'Angers-Marc\u00e9",
    "city": "Seiches-sur-le-Loir",
    "state": "Pays de la Loire",
    "country": "France"
  },
  {
    "code": "ANF",
    "latitude": "-23.44",
    "longitude": "-70.4419",
    "name": "Cerro Moreno International Airport",
    "city": "Antofagasta",
    "state": "Antofagasta",
    "country": "Chile"
  },
  {
    "code": "ANG",
    "latitude": "45.7274",
    "longitude": "0.21835",
    "name": "Brie Champniers Airport",
    "city": "Champniers",
    "state": "Poitou-Charentes",
    "country": "France"
  },
  {
    "code": "ANI",
    "latitude": "61.5742",
    "longitude": "-159.535",
    "name": "Aniak Airport",
    "city": "Bethel",
    "state": "Alaska",
    "country": "United States"
  },
  {
    "code": "ANM",
    "latitude": "-18.7772",
    "longitude": "46.8543",
    "name": "Madagascar",
    "city": "Antalaha",
    "state": "",
    "country": "Madagascar"
  },
  {
    "code": "ANR",
    "latitude": "51.1896",
    "longitude": "4.45236",
    "name": "Deurne Airport",
    "city": "Antwerp",
    "state": "Antwerp",
    "country": "Belgium"
  },
  {
    "code": "ANU",
    "latitude": "17.1375",
    "longitude": "-61.79",
    "name": "V C Bird International Airport",
    "city": "Carlisle",
    "state": "Saint George",
    "country": "Antigua and Barbuda"
  },
  {
    "code": "ANV",
    "latitude": "62.65",
    "longitude": "-160.217",
    "name": "Anvik Airport",
    "city": "Anvik",
    "state": "Alaska",
    "country": "United States"
  },
  {
    "code": "ANX",
    "latitude": "69.3088",
    "longitude": "16.1236",
    "name": "Andoya Airport",
    "city": "Andenes",
    "state": "Nordland Fylke",
    "country": "Norway"
  },
  {
    "code": "AOC",
    "latitude": "50.9794",
    "longitude": "12.5111",
    "name": "Altenburg Nobitz",
    "city": "Altenburg",
    "state": "Thuringia",
    "country": "Germany",
    "url": "http:\/\/www.flughafen-altenburg.de"
  },
  {
    "code": "AOE",
    "latitude": "39.7905",
    "longitude": "30.5172",
    "name": "Anadolu University Airport",
    "city": "Eski\u015fehir",
    "state": "Eski\u015fehir",
    "country": "Turkey"
  },
  {
    "code": "AOI",
    "latitude": "43.6158",
    "longitude": "13.3634",
    "name": "Falconara Airport",
    "city": "Falconara Marittima",
    "state": "Marche",
    "country": "Italy",
    "url": "http:\/\/www.ancona-airport.com"
  },
  {
    "code": "AOJ",
    "latitude": "40.7357",
    "longitude": "140.69",
    "name": "Aomori Airport",
    "city": "Aomori-shi",
    "state": "Aomori Prefecture",
    "country": "Japan"
  },
  {
    "code": "AOK",
    "latitude": "35.4239",
    "longitude": "27.1472",
    "name": "Karpathos Airport",
    "city": "Karpathos",
    "state": "Notio Aigaio",
    "country": "Greece"
  },
  {
    "code": "AOO",
    "latitude": "40.2952",
    "longitude": "-78.324",
    "name": "Altoona-Blair County Airport",
    "city": "Martinsburg",
    "state": "Pennsylvania",
    "country": "United States"
  },
  {
    "code": "AOR",
    "latitude": "6.1947",
    "longitude": "100.404",
    "name": "Sultan Abdul Halim Airport",
    "city": "Kepala Batas",
    "state": "Kedah",
    "country": "Malaysia"
  },
  {
    "code": "AOS",
    "latitude": "57.4672",
    "longitude": "-153.839",
    "name": "Amook Bay Seaplane Base",
    "city": "Amook",
    "state": "Alaska",
    "country": "United States"
  },
  {
    "code": "APA",
    "latitude": "39.5752",
    "longitude": "-104.845",
    "name": "Centennial Airport",
    "city": "Englewood",
    "state": "Colorado",
    "country": "United States",
    "type": "Other Airport"
  },
  {
    "code": "APF",
    "latitude": "26.1483",
    "longitude": "-81.7745",
    "name": "Naples Municipal Airport",
    "city": "Naples",
    "state": "Florida",
    "country": "United States"
  },
  {
    "code": "APK",
    "latitude": "-8.64687",
    "longitude": "-131.787",
    "name": "French Polynesia",
    "city": "Apataki",
    "state": "",
    "country": "French Polynesia"
  },
  {
    "code": "APL",
    "latitude": "-15.1",
    "longitude": "39.2814",
    "name": "Nampula Airport",
    "city": "Nampula",
    "state": "Nampula",
    "country": "Mozambique"
  },
  {
    "code": "APN",
    "latitude": "45.07",
    "longitude": "-83.5683",
    "name": "Alpena County Regional Airport",
    "city": "Alpena",
    "state": "Michigan",
    "country": "United States"
  },
  {
    "code": "APO",
    "latitude": "7.88361",
    "longitude": "-76.6321",
    "name": "Apartado Airport",
    "city": "Apartad\u00f3",
    "state": "Antioquia",
    "country": "Colombia"
  },
  {
    "code": "APW",
    "latitude": "-13.8255",
    "longitude": "-171.993",
    "name": "Faleolo Airport",
    "city": "Apia",
    "state": "A`ana",
    "country": "Samoa"
  },
  {
    "code": "AQG",
    "latitude": "30.5167",
    "longitude": "117.033",
    "name": "Anqing Airport",
    "city": "Anqing",
    "state": "Anhui",
    "country": "China"
  },
  {
    "code": "AQI",
    "latitude": "28.3317",
    "longitude": "46.13",
    "name": "Hafr Al Batin Airport",
    "city": "Qaisumah",
    "state": "",
    "country": "Saudi Arabia"
  },
  {
    "code": "AQJ",
    "latitude": "29.6119",
    "longitude": "35.0178",
    "name": "Aqaba International Airport",
    "city": "Aqaba",
    "state": "Al `Aqabah",
    "country": "Jordan"
  },
  {
    "code": "AQP",
    "latitude": "-16.3372",
    "longitude": "-71.5692",
    "name": "Rodriguez Ballon Airport",
    "city": "Arequipa",
    "state": "Arequipa",
    "country": "Peru"
  },
  {
    "code": "ARC",
    "latitude": "68.1167",
    "longitude": "-145.583",
    "name": "Arctic Village Airport",
    "city": "Arctic Village",
    "state": "Alaska",
    "country": "United States"
  },
  {
    "code": "ARD",
    "latitude": "35.1437",
    "longitude": "-93.1848",
    "name": "Alor Island",
    "city": "Alor Island",
    "state": "",
    "country": "Indonesia"
  },
  {
    "code": "ARH",
    "latitude": "64.4465",
    "longitude": "40.4242",
    "name": "Arkhangelsk Airport",
    "city": "Arkhangel'sk",
    "state": "Arkhangelrskaya Oblast",
    "country": "Russia"
  },
  {
    "code": "ARI",
    "latitude": "-18.3458",
    "longitude": "-70.3358",
    "name": "Chacalluta Airport",
    "city": "Arica",
    "state": "Tarapaca",
    "country": "Chile"
  },
  {
    "code": "ARK",
    "latitude": "-3.36515",
    "longitude": "36.6738",
    "name": "Arusha Airport",
    "city": "Arusha",
    "state": "Arusha",
    "country": "Tanzania"
  },
  {
    "code": "ARM",
    "latitude": "-30.5308",
    "longitude": "151.618",
    "name": "Armidale Airport",
    "city": "Armidale",
    "state": "New South Wales",
    "country": "Australia"
  },
  {
    "code": "ARN",
    "latitude": "59.6521",
    "longitude": "17.9317",
    "name": "Arlanda Airport",
    "city": "M\u00e4rst",
    "state": "Stockholm",
    "country": "Sweden",
    "phone": "+46 8 797 6000",
    "url": "http:\/\/www.arlanda.se"
  },
  {
    "code": "ART",
    "latitude": "43.9942",
    "longitude": "-76.0232",
    "name": "Watertown International Airport",
    "city": "Dexter",
    "state": "New York",
    "country": "United States"
  },
  {
    "code": "ARU",
    "latitude": "-21.1436",
    "longitude": "-50.4261",
    "name": "Aracatuba Airport",
    "city": "Ara\u00e7atuba",
    "state": "Sao Paulo",
    "country": "Brazil"
  },
  {
    "code": "ARV",
    "latitude": "45.9296",
    "longitude": "-89.7371",
    "name": "Lakelan-Noble F. Lee Memerial Field Airport",
    "city": "Woodruff",
    "state": "Wisconsin",
    "country": "United States"
  },
  {
    "code": "ARW",
    "latitude": "46.1805",
    "longitude": "21.2609",
    "name": "Ceala Airport",
    "city": "Arad",
    "state": "Arad",
    "country": "Romania",
    "url": "http:\/\/www.aeroportularad.ro\/index_en.html"
  },
  {
    "code": "ASA",
    "latitude": "31.4124",
    "longitude": "-97.0528",
    "name": "Assab",
    "city": "Assab",
    "state": "",
    "country": "Ethiopia"
  },
  {
    "code": "ASB",
    "latitude": "37.9842",
    "longitude": "58.3294",
    "name": "Ashkhabad Northwest Airport",
    "city": "Ashgabat",
    "state": "Ashkhabad",
    "country": "Turkmenistan"
  },
  {
    "code": "ASD",
    "latitude": "24.6978",
    "longitude": "-77.7961",
    "name": "Andros Town Airport",
    "city": "Fresh Creek",
    "state": "Central Andros",
    "country": "Bahamas"
  },
  {
    "code": "ASE",
    "latitude": "39.2197",
    "longitude": "-106.864",
    "name": "Aspen Pitkin County Airport-Sardy Field",
    "city": "Aspen",
    "state": "Colorado",
    "country": "United States"
  },
  {
    "code": "ASF",
    "latitude": "46.2971",
    "longitude": "48.0515",
    "name": "Astrakhan Southeast Airport",
    "city": "Astrakhan'",
    "state": "Astrakhanskaya Oblast",
    "country": "Russia"
  },
  {
    "code": "ASI",
    "latitude": "-7.93586",
    "longitude": "-14.4081",
    "name": "Wideawake Fld",
    "city": "Georgetown, Ascension Island",
    "state": "Ascension",
    "country": "St. Helena"
  },
  {
    "code": "ASJ",
    "latitude": "28.431",
    "longitude": "129.712",
    "name": "Amami Airport",
    "city": "Amami O Shima",
    "state": "Mie Prefecture",
    "country": "Japan"
  },
  {
    "code": "ASM",
    "latitude": "15.2906",
    "longitude": "38.9103",
    "name": "Yohannes Iv International Airport",
    "city": "Asmara",
    "state": "Maekel",
    "country": "Eritrea"
  },
  {
    "code": "ASO",
    "latitude": "10.0611",
    "longitude": "34.5344",
    "name": "Ethiopia",
    "city": "Asosa",
    "state": "Welega",
    "country": "Ethiopia"
  },
  {
    "code": "ASP",
    "latitude": "-23.802",
    "longitude": "133.892",
    "name": "Alice Springs Airport",
    "city": "Alice Springs",
    "state": "Northern Territory",
    "country": "Australia"
  },
  {
    "code": "ASR",
    "latitude": "38.7708",
    "longitude": "35.4939",
    "name": "Erkilet Airport",
    "city": "Kayseri",
    "state": "Kayseri",
    "country": "Turkey"
  },
  {
    "code": "ASU",
    "latitude": "-25.2397",
    "longitude": "-57.5189",
    "name": "Silvio Pettirossi International Airport",
    "city": "Colonia Mariano Roque Alonso",
    "state": "Central",
    "country": "Paraguay"
  },
  {
    "code": "ASV",
    "latitude": "-2.63333",
    "longitude": "37.25",
    "name": "Amboseli",
    "city": "Amboseli",
    "state": "Rift Valley",
    "country": "Kenya"
  },
  {
    "code": "ASW",
    "latitude": "23.965",
    "longitude": "32.8217",
    "name": "Aswan Airport",
    "city": "Aswan",
    "state": "Aswan",
    "country": "Egypt"
  },
  {
    "code": "ATB",
    "latitude": "17.7",
    "longitude": "33.9833",
    "name": "Atbara",
    "city": "Atbara",
    "state": "Nahr an Nil",
    "country": "Sudan"
  },
  {
    "code": "ATC",
    "latitude": "24.6287",
    "longitude": "-75.6734",
    "name": "Arthur's Town Airport",
    "city": "Arthur Town",
    "state": "Cat Island",
    "country": "Bahamas"
  },
  {
    "code": "ATD",
    "latitude": "-8.86667",
    "longitude": "161.033",
    "name": "Atoifi",
    "city": "Atoifi",
    "state": "Malaita",
    "country": "Solomon Islands"
  },
  {
    "code": "ATH",
    "latitude": "37.8937",
    "longitude": "23.7235",
    "name": "Eleftherios Venizelos International Airport",
    "city": "Athens",
    "state": "Attiki",
    "country": "Greece",
    "phone": "0030 210 353 0001",
    "url": "http:\/\/www.aia.gr"
  },
  {
    "code": "ATK",
    "latitude": "70.4639",
    "longitude": "-157.331",
    "name": "Atqasuk Airport",
    "city": "Atqasuk",
    "state": "Alaska",
    "country": "United States"
  },
  {
    "code": "ATL",
    "latitude": "33.6558",
    "longitude": "-84.4333",
    "name": "Hartsfield-Jackson Atlanta International Airport",
    "city": "Atlanta",
    "state": "Georgia",
    "country": "United States",
    "phone": "(654) 57 8833",
    "url": "http:\/\/www.atlanta-airport.com\/"
  },
  {
    "code": "ATM",
    "latitude": "-3.2506",
    "longitude": "-52.2517",
    "name": "Altamira Airport",
    "city": "Altamira",
    "state": "Para",
    "country": "Brazil"
  },
  {
    "code": "ATQ",
    "latitude": "31.7131",
    "longitude": "74.7955",
    "name": "Raja Sansi Airport",
    "city": "Raja Sansi",
    "state": "Punjab",
    "country": "India"
  },
  {
    "code": "ATR",
    "latitude": "20.5067",
    "longitude": "-13.0436",
    "name": "Atar Airport",
    "city": "Atar",
    "state": "Adrar",
    "country": "Mauritania"
  },
  {
    "code": "ATT",
    "latitude": "60.865",
    "longitude": "-162.276",
    "name": "Atmautluak Airport",
    "city": "Atmautluak",
    "state": "Alaska",
    "country": "United States"
  },
  {
    "code": "ATW",
    "latitude": "44.2603",
    "longitude": "-88.5111",
    "name": "Outagamie County Airport",
    "city": "Appleton",
    "state": "Wisconsin",
    "country": "United States",
    "url": "http:\/\/www.atwairport.com\/"
  },
  {
    "code": "ATY",
    "latitude": "44.9216",
    "longitude": "-97.1609",
    "name": "Watertown Municipal Airport",
    "city": "Watertown",
    "state": "South Dakota",
    "country": "United States"
  },
  {
    "code": "ATZ",
    "latitude": "27.0411",
    "longitude": "31.0114",
    "name": "Asyut Airport",
    "city": "Asyut",
    "state": "Asyut",
    "country": "Egypt"
  },
  {
    "code": "AUA",
    "latitude": "12.5022",
    "longitude": "-70.0139",
    "name": "Reina Beatrix International Airport",
    "city": "Aruba",
    "state": "",
    "country": "Aruba",
    "url": "http:\/\/www.airportaruba.com"
  },
  {
    "code": "AUC",
    "latitude": "7.0703",
    "longitude": "-70.7406",
    "name": "Santiago Perez Airport",
    "city": "Arauca",
    "state": "Caldas",
    "country": "Colombia"
  },
  {
    "code": "AUG",
    "latitude": "44.3181",
    "longitude": "-69.7933",
    "name": "Augusta State Airport",
    "city": "Augusta",
    "state": "Maine",
    "country": "United States"
  },
  {
    "code": "AUH",
    "latitude": "24.4331",
    "longitude": "54.6489",
    "name": "Abu Dhabi International Airport",
    "city": "Abu Dhabi",
    "state": "Abu Dhabi",
    "country": "United Arab Emirates",
    "phone": "+971 2-5757500",
    "url": "http:\/\/www.dcaauh.gov.ae\/english\/abudhabi\/introduction.htm#"
  },
  {
    "code": "AUK",
    "latitude": "62.6833",
    "longitude": "-164.633",
    "name": "Alakanuk Airport",
    "city": "Alakanuk",
    "state": "Alaska",
    "country": "United States"
  },
  {
    "code": "AUQ",
    "latitude": "-9.7719",
    "longitude": "-139.015",
    "name": "Atuona Airport",
    "city": "Atuona",
    "state": "Marquesas Islands",
    "country": "French Polynesia"
  },
  {
    "code": "AUR",
    "latitude": "44.8984",
    "longitude": "2.41982",
    "name": "Aurillac Airport",
    "city": "Aurillac",
    "state": "Auvergne",
    "country": "France",
    "type": "Other Airport"
  },
  {
    "code": "AUS",
    "latitude": "30.2027",
    "longitude": "-97.6653",
    "name": "Austin-Bergstrom International Airport",
    "city": "Austin",
    "state": "Texas",
    "country": "United States",
    "url": "http:\/\/www.abia.org\/"
  },
  {
    "code": "AUX",
    "latitude": "-7.2281",
    "longitude": "-48.2403",
    "name": "Araguaina Airport",
    "city": "Araguaina",
    "state": "Norte",
    "country": "Brazil"
  },
  {
    "code": "AUY",
    "latitude": "-20.1909",
    "longitude": "169.825",
    "name": "Vanuatu",
    "city": "Aneityum",
    "state": "Tafea",
    "country": "Vanuatu"
  },
  {
    "code": "AVL",
    "latitude": "35.4349",
    "longitude": "-82.5373",
    "name": "Asheville Regional Airport",
    "city": "Fletcher",
    "state": "North Carolina",
    "country": "United States",
    "url": "http:\/\/www.flyavl.com\/"
  },
  {
    "code": "AVN",
    "latitude": "43.9056",
    "longitude": "4.89951",
    "name": "Avignon-Caumont Airport",
    "city": "Avignon",
    "state": "Provence-alpes-cote d'Azur",
    "country": "France"
  },
  {
    "code": "AVP",
    "latitude": "41.3354",
    "longitude": "-75.7294",
    "name": "Wilkes Barre Scranton International Airport",
    "city": "Pittston",
    "state": "Pennsylvania",
    "country": "United States"
  },
  {
    "code": "AVU",
    "latitude": "-9.85",
    "longitude": "160.417",
    "name": "Avu Avu",
    "city": "Avu Avu",
    "state": "Guadalcanal",
    "country": "Solomon Islands"
  },
  {
    "code": "AVV",
    "latitude": "-38.0408",
    "longitude": "144.468",
    "name": "Avalon Airport",
    "city": "Lara",
    "state": "Victoria",
    "country": "Australia",
    "type": "Other Airport"
  },
  {
    "code": "AWB",
    "latitude": "-8.01667",
    "longitude": "142.75",
    "name": "Awaba",
    "city": "Awaba",
    "state": "",
    "country": "Papua New Guinea"
  },
  {
    "code": "AWD",
    "latitude": "-19.2501",
    "longitude": "169.598",
    "name": "Aniwa Airport",
    "city": "Aniwa",
    "state": "Tafea",
    "country": "Vanuatu"
  },
  {
    "code": "AWZ",
    "latitude": "31.3378",
    "longitude": "48.7597",
    "name": "Ahvaz Airport",
    "city": "Ahvaz",
    "state": "Khuzestan",
    "country": "Iran"
  },
  {
    "code": "AXA",
    "latitude": "18.2103",
    "longitude": "-63.0575",
    "name": "Wallblake Airport",
    "city": "Anguilla",
    "state": "The Valley",
    "country": "Anguilla"
  },
  {
    "code": "AXD",
    "latitude": "40.8567",
    "longitude": "25.9567",
    "name": "Alexandroupolis Airport",
    "city": "Alexandroupolis",
    "state": "Anatoliki Makedonia",
    "country": "Greece"
  },
  {
    "code": "AXM",
    "latitude": "4.4564",
    "longitude": "-75.7681",
    "name": "El Eden Airport",
    "city": "La Tebaida",
    "state": "Quindio",
    "country": "Colombia"
  },
  {
    "code": "AXP",
    "latitude": "22.4441",
    "longitude": "-73.9775",
    "name": "Spring Point Airport",
    "city": "Spring Point",
    "state": "Acklins",
    "country": "Bahamas"
  },
  {
    "code": "AXR",
    "latitude": "-15.5098",
    "longitude": "-146.538",
    "name": "French Polynesia",
    "city": "Arutua",
    "state": "Tuamotu-Gambier",
    "country": "French Polynesia"
  },
  {
    "code": "AXT",
    "latitude": "39.6153",
    "longitude": "140.219",
    "name": "Akita Airport",
    "city": "Akita-shi",
    "state": "Akita Prefecture",
    "country": "Japan"
  },
  {
    "code": "AXU",
    "latitude": "14.147",
    "longitude": "38.7726",
    "name": "Axum",
    "city": "Axum",
    "state": "Tigray",
    "country": "Ethiopia"
  },
  {
    "code": "AYQ",
    "latitude": "-25.1872",
    "longitude": "130.977",
    "name": "Ayers Rock Airport",
    "city": "Ayers Rock",
    "state": "Northern Territory",
    "country": "Australia"
  },
  {
    "code": "AYT",
    "latitude": "36.9022",
    "longitude": "30.7917",
    "name": "Antalya Airport",
    "city": "Antalya",
    "state": "Antalya",
    "country": "Turkey"
  },
  {
    "code": "AZA",
    "latitude": "33.3078",
    "longitude": "-111.656",
    "name": "Phoenix-Mesa Gateway Airport",
    "city": "Phoenix",
    "state": "Arizona",
    "country": "United States",
    "url": "http:\/\/www.flywga.org\/"
  },
  {
    "code": "AZD",
    "latitude": "31.905",
    "longitude": "54.2786",
    "name": "Yazd Airport",
    "city": "Yezd",
    "state": "Yazd",
    "country": "Iran"
  },
  {
    "code": "AZN",
    "latitude": "40.7324",
    "longitude": "72.2931",
    "name": "Andizhan Airport",
    "city": "Andijon",
    "state": "Andijon",
    "country": "Uzbekistan"
  },
  {
    "code": "AZO",
    "latitude": "42.2398",
    "longitude": "-85.5563",
    "name": "Kalamazoo-Battle Creek International Airport",
    "city": "Kalamazoo",
    "state": "Michigan",
    "country": "United States"
  },
  {
    "code": "AZR",
    "latitude": "27.8378",
    "longitude": "-0.1864",
    "name": "Touat Airport",
    "city": "Adrar",
    "state": "Adrar",
    "country": "Algeria"
  },
  {
    "code": "AZS",
    "latitude": "19.2099",
    "longitude": "-69.3279",
    "name": "Samana El Catey International Airport",
    "city": "Samana",
    "state": "Samana",
    "country": "Dominican Republic"
  },
  {
    "code": "BAG",
    "latitude": "16.3764",
    "longitude": "120.619",
    "name": "Baguio Airport",
    "city": "Baguio City",
    "state": "Cordillera Administrative Region",
    "country": "Philippines"
  },
  {
    "code": "BAH",
    "latitude": "26.2736",
    "longitude": "50.6234",
    "name": "Bahrain International Airport",
    "city": "Al Muharraq",
    "state": "Al Manamah",
    "country": "Bahrain",
    "phone": "+973 1732 1997",
    "url": "http:\/\/www.bahrainairport.com\/bia\/index_bia.htm"
  },
  {
    "code": "BAL",
    "latitude": "37.93",
    "longitude": "41.1167",
    "name": "Batman Airport",
    "city": "Batman",
    "state": "Batman",
    "country": "Turkey"
  },
  {
    "code": "BAQ",
    "latitude": "10.8961",
    "longitude": "-74.7789",
    "name": "Ernesto Cortissoz Airport",
    "city": "Soledad",
    "state": "Atlantico",
    "country": "Colombia"
  },
  {
    "code": "BAS",
    "latitude": "-7.98333",
    "longitude": "155.9",
    "name": "Balalae",
    "city": "Balalae",
    "state": "Western",
    "country": "Solomon Islands"
  },
  {
    "code": "BAU",
    "latitude": "-22.345",
    "longitude": "-49.0531",
    "name": "Bauru Airport",
    "city": "Bauru",
    "state": "Sao Paulo",
    "country": "Brazil"
  },
  {
    "code": "BAV",
    "latitude": "40.5679",
    "longitude": "109.998",
    "name": "Baotou Airport",
    "city": "Baotou",
    "state": "Nei Mongol",
    "country": "China"
  },
  {
    "code": "BAX",
    "latitude": "53.3667",
    "longitude": "83.75",
    "name": "Barnaui West Airport",
    "city": "Barnaul",
    "state": "Altayskiy Kray",
    "country": "Russia"
  },
  {
    "code": "BAY",
    "latitude": "47.6589",
    "longitude": "23.465",
    "name": "Baia Mare",
    "city": "Baia Mare",
    "state": "",
    "country": "Romania"
  },
  {
    "code": "BBA",
    "latitude": "-45.9167",
    "longitude": "-71.6869",
    "name": "Balmaceda Airport",
    "city": "Balmaceda",
    "state": "Aisen del General Carlos Ibanez ",
    "country": "Chile"
  },
  {
    "code": "BBI",
    "latitude": "20.2466",
    "longitude": "85.8152",
    "name": "Bhubaneswar Airport",
    "city": "Bhubaneswar",
    "state": "Orissa",
    "country": "India"
  },
  {
    "code": "BBK",
    "latitude": "-17.8333",
    "longitude": "25.1667",
    "name": "Kasane Airport",
    "city": "Kasane",
    "state": "Chobe",
    "country": "Botswana"
  },
  {
    "code": "BBN",
    "latitude": "3.73333",
    "longitude": "115.467",
    "name": "Bario Airport",
    "city": "Nanga Medamit",
    "state": "Sarawak",
    "country": "Malaysia"
  },
  {
    "code": "BBO",
    "latitude": "10.3917",
    "longitude": "44.95",
    "name": "Berbera Airport",
    "city": "Berbera",
    "state": "Woqooyi Galbeed",
    "country": "Somalia"
  },
  {
    "code": "BBS",
    "latitude": "51.3252",
    "longitude": "-0.84173",
    "name": "Blackbushe Airport",
    "city": "Camberley",
    "state": "England",
    "country": "United Kingdom",
    "phone": "+44 (0) 1252 879449",
    "url": "http:\/\/www.blackbusheairport.co.uk"
  },
  {
    "code": "BBU",
    "latitude": "44.4966",
    "longitude": "26.087",
    "name": "Aeroportul National Bucuresti-Baneasa",
    "city": "Bucharest",
    "state": "Bucuresti",
    "country": "Romania",
    "phone": "+40 21 232 0020"
  },
  {
    "code": "BCA",
    "latitude": "20.3644",
    "longitude": "-74.5064",
    "name": "Baracoa Airport",
    "city": "Baracoa",
    "state": "Guantanamo",
    "country": "Cuba"
  },
  {
    "code": "BCD",
    "latitude": "10.6444",
    "longitude": "122.929",
    "name": "Bacolod Airport",
    "city": "Bacolod City",
    "state": "Western Visayas",
    "country": "Philippines"
  },
  {
    "code": "BCI",
    "latitude": "-23.5635",
    "longitude": "145.305",
    "name": "Barcaldine Aerodrome",
    "city": "Barcaldine",
    "state": "Queensland",
    "country": "Australia"
  },
  {
    "code": "BCL",
    "latitude": "10.7856",
    "longitude": "-83.5966",
    "name": "Barra Colorado Airport",
    "city": "Colorado",
    "state": "Limon",
    "country": "Costa Rica"
  },
  {
    "code": "BCM",
    "latitude": "46.5283",
    "longitude": "26.8997",
    "name": "Luizi Calugara Airport",
    "city": "Bac\u00e6u",
    "state": "Bacau",
    "country": "Romania"
  },
  {
    "code": "BCN",
    "latitude": "41.3006",
    "longitude": "2.07976",
    "name": "Barcelona International Airport",
    "city": "El Prat de Llobregat",
    "state": "Catalonia",
    "country": "Spain",
    "url": "http:\/\/www.aena.es"
  },
  {
    "code": "BDA",
    "latitude": "32.3675",
    "longitude": "-64.6903",
    "name": "Bermuda International Airport",
    "city": "St. George",
    "state": "Pembroke",
    "country": "Bermuda"
  },
  {
    "code": "BDB",
    "latitude": "-24.9046",
    "longitude": "152.322",
    "name": "Bundaberg Airport",
    "city": "Bundaberg",
    "state": "Queensland",
    "country": "Australia"
  },
  {
    "code": "BDD",
    "latitude": "-10.1214",
    "longitude": "142.142",
    "name": "Badu Island Airport",
    "city": "Badu Island",
    "state": "Queensland",
    "country": "Australia"
  },
  {
    "code": "BDH",
    "latitude": "26.5333",
    "longitude": "54.8239",
    "name": "Bandar Lengeh Airport",
    "city": "Bandar Abbas",
    "state": "Hormozgan",
    "country": "Iran"
  },
  {
    "code": "BDJ",
    "latitude": "-3.4425",
    "longitude": "114.757",
    "name": "Syamsuddin Noor Airport",
    "city": "Banjarmasin",
    "state": "Kalimantan Selatan",
    "country": "Indonesia"
  },
  {
    "code": "BDL",
    "latitude": "41.9271",
    "longitude": "-72.6816",
    "name": "Bradley International Airport",
    "city": "Windsor Locks",
    "state": "Connecticut",
    "country": "United States"
  },
  {
    "code": "BDO",
    "latitude": "-6.9017",
    "longitude": "107.576",
    "name": "Husein Sastranegara Airport",
    "city": "Bandung",
    "state": "Jawa Barat",
    "country": "Indonesia"
  },
  {
    "code": "BDP",
    "latitude": "26.5667",
    "longitude": "88.0833",
    "name": "Bhadrapur",
    "city": "Bhadrapur",
    "state": "West Bengal",
    "country": "Nepal"
  },
  {
    "code": "BDQ",
    "latitude": "22.3367",
    "longitude": "73.2264",
    "name": "Vadodara Airport",
    "city": "Vadodara",
    "state": "Gujarat",
    "country": "India"
  },
  {
    "code": "BDR",
    "latitude": "41.1636",
    "longitude": "-73.1283",
    "name": "Igor I Sikorsky Memorial Airport",
    "city": "Stratford",
    "state": "Connecticut",
    "country": "United States"
  },
  {
    "code": "BDS",
    "latitude": "40.6626",
    "longitude": "17.9426",
    "name": "Casale Airport",
    "city": "Brindisi",
    "state": "Puglia",
    "country": "Italy"
  },
  {
    "code": "BDU",
    "latitude": "69.0589",
    "longitude": "18.539",
    "name": "Bardufoss Airport",
    "city": "Bardufoss",
    "state": "Troms Fylke",
    "country": "Norway",
    "phone": "+47 77 83 02 00"
  },
  {
    "code": "BEB",
    "latitude": "57.4756",
    "longitude": "-7.37041",
    "name": "Benbecula Airport",
    "city": "Balivanich",
    "state": "Scotland",
    "country": "United Kingdom"
  },
  {
    "code": "BEG",
    "latitude": "44.8192",
    "longitude": "20.3122",
    "name": "Surcin Airport",
    "city": "Sur\u010din",
    "state": "Beograd",
    "country": "Serbia",
    "phone": "+381 11 209 4000",
    "url": "http:\/\/www.beg.aero"
  },
  {
    "code": "BEL",
    "latitude": "-1.3844",
    "longitude": "-48.4783",
    "name": "Val de Caes International Airport",
    "city": "Belem",
    "state": "Para",
    "country": "Brazil"
  },
  {
    "code": "BEN",
    "latitude": "35.6425",
    "longitude": "-87.1192",
    "name": "Benina Intl",
    "city": "Benghazi",
    "state": "Banghazi",
    "country": "Libya"
  },
  {
    "code": "BES",
    "latitude": "48.4458",
    "longitude": "-4.41511",
    "name": "Guipavas Airport",
    "city": "Guipavas",
    "state": "Brittany",
    "country": "France"
  },
  {
    "code": "BET",
    "latitude": "60.7788",
    "longitude": "-161.847",
    "name": "Bethel Airport",
    "city": "Bethel",
    "state": "Alaska",
    "country": "United States"
  },
  {
    "code": "BEU",
    "latitude": "-24.3544",
    "longitude": "139.463",
    "name": "Bedourie Aerodrome",
    "city": "Bedourie",
    "state": "Queensland",
    "country": "Australia"
  },
  {
    "code": "BEW",
    "latitude": "-19.7958",
    "longitude": "34.9089",
    "name": "Beira Airport",
    "city": "Beira",
    "state": "Sofala",
    "country": "Mozambique"
  },
  {
    "code": "BEY",
    "latitude": "33.825",
    "longitude": "35.4925",
    "name": "Beirut International Airport",
    "city": "Beirut",
    "state": "Jabal Lubnan",
    "country": "Lebanon",
    "url": "http:\/\/www.beirutairport.gov.lb\/indexflash.html"
  },
  {
    "code": "BFD",
    "latitude": "41.7964",
    "longitude": "-78.6407",
    "name": "Bradford Regional Airport",
    "city": "Lewis Run",
    "state": "Pennsylvania",
    "country": "United States"
  },
  {
    "code": "BFE",
    "latitude": "52",
    "longitude": "8.5",
    "name": "Bielefeld",
    "city": "Bielefeld",
    "state": "North-Rhine-Westphalia",
    "country": "Germany"
  },
  {
    "code": "BFF",
    "latitude": "41.8683",
    "longitude": "-103.597",
    "name": "William B Heilig Field Airport",
    "city": "Scottsbluff",
    "state": "Nebraska",
    "country": "United States"
  },
  {
    "code": "BFI",
    "latitude": "47.5369",
    "longitude": "-122.304",
    "name": "King County International Airport-Boeing Field",
    "city": "Seattle",
    "state": "Washington",
    "country": "United States"
  },
  {
    "code": "BFL",
    "latitude": "35.4288",
    "longitude": "-119.044",
    "name": "Kern County-Meadows Field Airport",
    "city": "Bakersfield",
    "state": "California",
    "country": "United States"
  },
  {
    "code": "BFN",
    "latitude": "-29.0942",
    "longitude": "26.3027",
    "name": "J B M Hertzog Airport",
    "city": "Bloemfontein",
    "state": "Free State",
    "country": "South Africa"
  },
  {
    "code": "BFS",
    "latitude": "54.6542",
    "longitude": "-6.225",
    "name": "Aldergrove Airport",
    "city": "Crumlin",
    "state": "Northern Ireland",
    "country": "United Kingdom",
    "phone": "00 44 (0)28 9448 4848",
    "url": "http:\/\/www.belfastairport.com"
  },
  {
    "code": "BFV",
    "latitude": "15.2295",
    "longitude": "103.253",
    "name": "Buri Ram",
    "city": "Buri Ram",
    "state": "Buriram",
    "country": "Thailand"
  },
  {
    "code": "BGA",
    "latitude": "7.1217",
    "longitude": "-73.1883",
    "name": "Palonegro Airport",
    "city": "Bucaramanga",
    "state": "Santander",
    "country": "Colombia"
  },
  {
    "code": "BGF",
    "latitude": "4.3961",
    "longitude": "18.5203",
    "name": "Bangui M Poko Airport",
    "city": "Bangui",
    "state": "Bangui",
    "country": "Central African Republic"
  },
  {
    "code": "BGI",
    "latitude": "13.0719",
    "longitude": "-59.4939",
    "name": "Grantley Adams International Airport",
    "city": "Bridgetown",
    "state": "Christ Church",
    "country": "Barbados"
  },
  {
    "code": "BGM",
    "latitude": "42.2082",
    "longitude": "-75.9825",
    "name": "Greater Binghamton Edwin A Link Field Airport",
    "city": "Johnson City",
    "state": "New York",
    "country": "United States"
  },
  {
    "code": "BGO",
    "latitude": "60.2907",
    "longitude": "5.22065",
    "name": "Bergen Flesland Airport",
    "city": "Blomsterdalen",
    "state": "Hordaland Fylke",
    "country": "Norway",
    "phone": "+47 55 99 80 00",
    "url": "http:\/\/www.avinor.no\/English\/Airports\/Bergen_Airport,_Flesland\/"
  },
  {
    "code": "BGR",
    "latitude": "44.8086",
    "longitude": "-68.8167",
    "name": "Bangor International Airport",
    "city": "Bangor",
    "state": "Maine",
    "country": "United States",
    "phone": "207-992-4600",
    "url": "http:\/\/www.flybangor.com"
  },
  {
    "code": "BGW",
    "latitude": "33.3328",
    "longitude": "44.3639",
    "name": "Al Muthana Airport",
    "city": "Baghdad",
    "state": "Baghdad",
    "country": "Iraq",
    "type": "Other Airport"
  },
  {
    "code": "BGY",
    "latitude": "45.6664",
    "longitude": "9.699",
    "name": "Orio Al Serio Airport",
    "city": "Grassobbio",
    "state": "Lombardy",
    "country": "Italy",
    "url": "http:\/\/www.sacbo.it\/"
  },
  {
    "code": "BHB",
    "latitude": "44.4461",
    "longitude": "-68.3615",
    "name": "Hancock County-Bar Harbor Airport",
    "city": "Ellsworth",
    "state": "Maine",
    "country": "United States"
  },
  {
    "code": "BHD",
    "latitude": "54.6151",
    "longitude": "-5.87096",
    "name": "George Best Belfast City Airport",
    "city": "Belfast",
    "state": "Northern Ireland",
    "country": "United Kingdom"
  },
  {
    "code": "BHE",
    "latitude": "-41.52",
    "longitude": "173.87",
    "name": "Woodbourne Airport",
    "city": "Blenheim",
    "state": "Marlborough",
    "country": "New Zealand"
  },
  {
    "code": "BHG",
    "latitude": "15.7636",
    "longitude": "-84.551",
    "name": "Brus Laguna Airport",
    "city": "Brus Laguna",
    "state": "Gracias a Dios",
    "country": "Honduras"
  },
  {
    "code": "BHH",
    "latitude": "19.9817",
    "longitude": "42.6267",
    "name": "Bisha Airport",
    "city": "Bisha",
    "state": "",
    "country": "Saudi Arabia"
  },
  {
    "code": "BHI",
    "latitude": "-38.7261",
    "longitude": "-62.1539",
    "name": "Bahia Blanca Cte Espora Naval Air Base",
    "city": "Punta Alta",
    "state": "Buenos Aires",
    "country": "Argentina"
  },
  {
    "code": "BHJ",
    "latitude": "23.2875",
    "longitude": "69.6706",
    "name": "Bhuj Airport",
    "city": "Bhuj",
    "state": "Gujarat",
    "country": "India"
  },
  {
    "code": "BHK",
    "latitude": "39.7948",
    "longitude": "64.4895",
    "name": "Bukhara Airport",
    "city": "Bukhara",
    "state": "Bukhoro",
    "country": "Uzbekistan"
  },
  {
    "code": "BHM",
    "latitude": "33.5604",
    "longitude": "-86.7492",
    "name": "Birmingham International Airport",
    "city": "Birmingham",
    "state": "Alabama",
    "country": "United States"
  },
  {
    "code": "BHO",
    "latitude": "23.2844",
    "longitude": "77.3383",
    "name": "Bairagarh Airport",
    "city": "Bhopal",
    "state": "Madhya Pradesh",
    "country": "India"
  },
  {
    "code": "BHQ",
    "latitude": "-32.0031",
    "longitude": "141.466",
    "name": "Broken Hill Airport",
    "city": "Broken Hill",
    "state": "New South Wales",
    "country": "Australia"
  },
  {
    "code": "BHR",
    "latitude": "25.9173",
    "longitude": "50.6071",
    "name": "Bharatpur",
    "city": "Bharatpur",
    "state": "Central",
    "country": "Nepal"
  },
  {
    "code": "BHS",
    "latitude": "-33.4121",
    "longitude": "149.657",
    "name": "Bathurst Airport",
    "city": "Bathurst",
    "state": "New South Wales",
    "country": "Australia"
  },
  {
    "code": "BHU",
    "latitude": "21.7536",
    "longitude": "72.1867",
    "name": "Bhavnagar Airport",
    "city": "Bhavnagar",
    "state": "Gujarat",
    "country": "India"
  },
  {
    "code": "BHV",
    "latitude": "29.3444",
    "longitude": "71.7125",
    "name": "Bahawalpur Airport",
    "city": "Bahawalpur",
    "state": "Punjab",
    "country": "Pakistan"
  },
  {
    "code": "BHX",
    "latitude": "52.4531",
    "longitude": "-1.73847",
    "name": "Birmingham International Airport",
    "city": "Birmingham",
    "state": "England",
    "country": "United Kingdom",
    "phone": "+44 (0)8707 335511",
    "url": "http:\/\/www.bhx.co.uk\/"
  },
  {
    "code": "BHY",
    "latitude": "21.4833",
    "longitude": "109.083",
    "name": "Beihai",
    "city": "Beihai",
    "state": "Guangxi",
    "country": "China"
  },
  {
    "code": "BIA",
    "latitude": "42.5497",
    "longitude": "9.48341",
    "name": "Poretta Airport",
    "city": "Borgo",
    "state": "Corsica",
    "country": "France"
  },
  {
    "code": "BID",
    "latitude": "41.1696",
    "longitude": "-71.58",
    "name": "Block Island State Airport",
    "city": "Block Island",
    "state": "Rhode Island",
    "country": "United States"
  },
  {
    "code": "BII",
    "latitude": "11.5833",
    "longitude": "165.383",
    "name": "Enyu Airfield",
    "city": "Bikini Atoll",
    "state": "",
    "country": "Marshall Islands"
  },
  {
    "code": "BIK",
    "latitude": "-1",
    "longitude": "136.117",
    "name": "Frans Kaisiepo Airport",
    "city": "Biak",
    "state": "Irian Jaya",
    "country": "Indonesia"
  },
  {
    "code": "BIL",
    "latitude": "45.8034",
    "longitude": "-108.537",
    "name": "Logan International Airport",
    "city": "Billings",
    "state": "Montana",
    "country": "United States"
  },
  {
    "code": "BIM",
    "latitude": "25.6994",
    "longitude": "-79.2636",
    "name": "South Bimini Airport",
    "city": "Bailey's Town",
    "state": "Bimini",
    "country": "Bahamas",
    "type": "Other Airport"
  },
  {
    "code": "BIO",
    "latitude": "43.3025",
    "longitude": "-2.91112",
    "name": "Bilbao Airport",
    "city": "Loiu",
    "state": "Basque Country",
    "country": "Spain"
  },
  {
    "code": "BIQ",
    "latitude": "43.472",
    "longitude": "-1.53137",
    "name": "Anglet Airport",
    "city": "Anglet",
    "state": "Aquitaine",
    "country": "France",
    "phone": "+33 5 59 43 83 83",
    "url": "http:\/\/www.biarritz.aeroport.fr\/indexen.html"
  },
  {
    "code": "BIR",
    "latitude": "26.4814",
    "longitude": "87.2647",
    "name": "Biratnagar Airport",
    "city": "Biratnagur",
    "state": "Central",
    "country": "Nepal"
  },
  {
    "code": "BIS",
    "latitude": "46.7745",
    "longitude": "-100.757",
    "name": "Bismarck Municipal Airport",
    "city": "Bismarck",
    "state": "North Dakota",
    "country": "United States"
  },
  {
    "code": "BJA",
    "latitude": "36.7133",
    "longitude": "5.0697",
    "name": "Soummam Airport",
    "city": "Bejaia",
    "state": "Bejaia",
    "country": "Algeria"
  },
  {
    "code": "BJB",
    "latitude": "37.4933",
    "longitude": "57.3007",
    "name": "Bojnord",
    "city": "Bojnord",
    "state": "Khorasan",
    "country": "Iran"
  },
  {
    "code": "BJF",
    "latitude": "70.6031",
    "longitude": "29.6948",
    "name": "Batsfjord Airport",
    "city": "Baasfjord",
    "state": "Finnmark Fylke",
    "country": "Norway"
  },
  {
    "code": "BJI",
    "latitude": "47.5065",
    "longitude": "-94.9338",
    "name": "Bemidji-Beltrami County Airport",
    "city": "Bemidji",
    "state": "Minnesota",
    "country": "United States"
  },
  {
    "code": "BJL",
    "latitude": "13.3372",
    "longitude": "-16.6544",
    "name": "Yundum International Airport",
    "city": "Yundum",
    "state": "Western",
    "country": "Gambia"
  },
  {
    "code": "BJM",
    "latitude": "-3.3317",
    "longitude": "29.3208",
    "name": "Bujumbura Airport",
    "city": "Bujumbura",
    "state": "Bujumbura",
    "country": "Burundi"
  },
  {
    "code": "BJR",
    "latitude": "11.5564",
    "longitude": "37.3687",
    "name": "Ethiopia",
    "city": "Bahar Dar",
    "state": "Misrak Gojam",
    "country": "Ethiopia"
  },
  {
    "code": "BJV",
    "latitude": "37.0413",
    "longitude": "27.4362",
    "name": "Milas Airport",
    "city": "Bodrum",
    "state": "Mu\u011fla",
    "country": "Turkey"
  },
  {
    "code": "BJW",
    "latitude": "-8.78333",
    "longitude": "120.983",
    "name": "Bajawa Airport",
    "city": "Ende",
    "state": "Nusa Tengarra Timur",
    "country": "Indonesia"
  },
  {
    "code": "BJX",
    "latitude": "20.9903",
    "longitude": "-101.478",
    "name": "Silao Airport",
    "city": "Silao",
    "state": "Guanajuato",
    "country": "Mexico"
  },
  {
    "code": "BJZ",
    "latitude": "38.8939",
    "longitude": "-6.81921",
    "name": "Talavera la Real Airport",
    "city": "Badajoz",
    "state": "Extremadura",
    "country": "Spain"
  },
  {
    "code": "BKA",
    "latitude": "55.5516",
    "longitude": "37.9763",
    "name": "Bykovo Airport",
    "city": "Lyubertsy",
    "state": "Moskovskaya Oblast",
    "country": "Russia"
  },
  {
    "code": "BKC",
    "latitude": "65.9833",
    "longitude": "-161.167",
    "name": "Buckland Airport",
    "city": "Buckland",
    "state": "Alaska",
    "country": "United States"
  },
  {
    "code": "BKI",
    "latitude": "5.9386",
    "longitude": "116.049",
    "name": "Kota Kinabalu Airport",
    "city": "Kota Kinabalu",
    "state": "Sabah",
    "country": "Malaysia"
  },
  {
    "code": "BKK",
    "latitude": "13.9144",
    "longitude": "100.608",
    "name": "Bangkok International Airport",
    "city": "Lak Si",
    "state": "Bangkok",
    "country": "Thailand",
    "url": "http:\/\/www.airportthai.co.th\/airportnew\/bia\/html\/"
  },
  {
    "code": "BKL",
    "latitude": "41.5115",
    "longitude": "-81.6869",
    "name": "Burke Lakefront Airport",
    "city": "Cleveland",
    "state": "Ohio",
    "country": "United States",
    "type": "Other Airport"
  },
  {
    "code": "BKM",
    "latitude": "3.94515",
    "longitude": "114.402",
    "name": "Malaysia",
    "city": "Bakalalan",
    "state": "",
    "country": "Malaysia"
  },
  {
    "code": "BKO",
    "latitude": "12.5361",
    "longitude": "-7.9486",
    "name": "Bamako Senou Airport",
    "city": "Kalaban",
    "state": "Bamako",
    "country": "Mali"
  },
  {
    "code": "BKQ",
    "latitude": "-24.4292",
    "longitude": "145.429",
    "name": "Blackall Aerodrome",
    "city": "Mount Enniskillen",
    "state": "Queensland",
    "country": "Australia"
  },
  {
    "code": "BKS",
    "latitude": "-3.8633",
    "longitude": "102.339",
    "name": "Padangkemiling Airport",
    "city": "Bengkulu",
    "state": "Bengkulu",
    "country": "Indonesia"
  },
  {
    "code": "BKW",
    "latitude": "37.7849",
    "longitude": "-81.1174",
    "name": "Raleigh County Memorial Airport",
    "city": "Beaver",
    "state": "West Virginia",
    "country": "United States"
  },
  {
    "code": "BKY",
    "latitude": "-2.3014",
    "longitude": "28.8139",
    "name": "Bukavu Kavumu Airport",
    "city": "Bukavu",
    "state": "Democratic Republic of",
    "country": "Congo"
  },
  {
    "code": "BLA",
    "latitude": "10.1103",
    "longitude": "-64.6872",
    "name": "Jose Antonio Anzoategui Airport",
    "city": "Pariagu\u00e1n",
    "state": "Anzoategui",
    "country": "Venezuela"
  },
  {
    "code": "BLE",
    "latitude": "60.4297",
    "longitude": "15.5081",
    "name": "Dala Airport",
    "city": "Borlange",
    "state": "Dalarna",
    "country": "Sweden",
    "url": "http:\/\/www.dalaflyget.se\/"
  },
  {
    "code": "BLI",
    "latitude": "48.7955",
    "longitude": "-122.532",
    "name": "Bellingham International Airport",
    "city": "Bellingham",
    "state": "Washington",
    "country": "United States"
  },
  {
    "code": "BLJ",
    "latitude": "35.5572",
    "longitude": "6.17229",
    "name": "Algeria",
    "city": "Batna",
    "state": "Batna",
    "country": "Algeria"
  },
  {
    "code": "BLK",
    "latitude": "53.7756",
    "longitude": "-3.04118",
    "name": "Blackpool Airport",
    "city": "Blackpool",
    "state": "England",
    "country": "United Kingdom",
    "phone": "08700 273 777",
    "url": "http:\/\/www.blackpoolinternational.com"
  },
  {
    "code": "BLL",
    "latitude": "55.742",
    "longitude": "9.15354",
    "name": "Billund Airport",
    "city": "Billund",
    "state": "Syddanmark",
    "country": "Denmark",
    "url": "http:\/\/www.billund-airport.com\/"
  },
  {
    "code": "BLQ",
    "latitude": "44.5345",
    "longitude": "11.2903",
    "name": "Bologna Airport",
    "city": "Bologna",
    "state": "Emilia Romagna",
    "country": "Italy"
  },
  {
    "code": "BLR",
    "latitude": "12.9526",
    "longitude": "77.6656",
    "name": "HAL Bangalore International Airport",
    "city": "Bangalore",
    "state": "Karnataka",
    "country": "India",
    "phone": "+91 (0)80 25228460"
  },
  {
    "code": "BLT",
    "latitude": "-23.6012",
    "longitude": "148.805",
    "name": "Blackwater Aerodrome",
    "city": "Baralaba",
    "state": "Queensland",
    "country": "Australia"
  },
  {
    "code": "BLV",
    "latitude": "38.5412",
    "longitude": "-89.8499",
    "name": "Belleville",
    "city": "Belleville",
    "state": "Illinois",
    "country": "United States",
    "type": "Other Airport"
  },
  {
    "code": "BLZ",
    "latitude": "-15.6764",
    "longitude": "34.9714",
    "name": "Chileka International Airport",
    "city": "Lunzu",
    "state": "Blantyre",
    "country": "Malawi"
  },
  {
    "code": "BMA",
    "latitude": "59.3562",
    "longitude": "17.9378",
    "name": "Bromma Airport",
    "city": "Bromma",
    "state": "Stockholm",
    "country": "Sweden",
    "url": "http:\/\/www.bromma.lfv.se\/"
  },
  {
    "code": "BME",
    "latitude": "-17.9464",
    "longitude": "122.233",
    "name": "Broome International Airport",
    "city": "Broome",
    "state": "Western Australia",
    "country": "Australia"
  },
  {
    "code": "BMI",
    "latitude": "40.4841",
    "longitude": "-88.9134",
    "name": "Bloomington Normal Airport",
    "city": "Bloomington",
    "state": "Illinois",
    "country": "United States"
  },
  {
    "code": "BMK",
    "latitude": "53.5797",
    "longitude": "6.71294",
    "name": "Borkum Airport",
    "city": "Borkum",
    "state": "Lower Saxony",
    "country": "Germany"
  },
  {
    "code": "BMO",
    "latitude": "24.2739",
    "longitude": "97.2517",
    "name": "Bhamo Airport",
    "city": "Bhamo",
    "state": "Kachin State",
    "country": "Myanmar"
  },
  {
    "code": "BMU",
    "latitude": "-8.5444",
    "longitude": "118.682",
    "name": "Mohammad Salahuddin Airport",
    "city": "Raba",
    "state": "Nusa Tenggara Barat",
    "country": "Indonesia"
  },
  {
    "code": "BMV",
    "latitude": "12.6667",
    "longitude": "108.05",
    "name": "Ban Me Thaut",
    "city": "Banmethuot",
    "state": "Dak Lak",
    "country": "Vietnam"
  },
  {
    "code": "BMW",
    "latitude": "28.0269",
    "longitude": "1.65284",
    "name": "Algeria",
    "city": "Bordj Badji Mokhtar",
    "state": "",
    "country": "Algeria"
  },
  {
    "code": "BMY",
    "latitude": "-19.75",
    "longitude": "163.667",
    "name": "Belep Island",
    "city": "Belep Island",
    "state": "Nord",
    "country": "New Caledonia"
  },
  {
    "code": "BNA",
    "latitude": "36.1342",
    "longitude": "-86.6682",
    "name": "Nashville International Airport",
    "city": "Nashville",
    "state": "Tennessee",
    "country": "United States"
  },
  {
    "code": "BND",
    "latitude": "27.225",
    "longitude": "56.3783",
    "name": "Bandar Abbass International Airport",
    "city": "Bandar Abbas",
    "state": "Hormozgan",
    "country": "Iran"
  },
  {
    "code": "BNE",
    "latitude": "-27.3589",
    "longitude": "153.122",
    "name": "Brisbane International Airport",
    "city": "Brisbane",
    "state": "Queensland",
    "country": "Australia",
    "phone": "+61 7 3406 3000",
    "url": "http:\/\/www.bne.com.au\/"
  },
  {
    "code": "BNI",
    "latitude": "6.3161",
    "longitude": "5.6",
    "name": "Benin Airport",
    "city": "Benin City",
    "state": "Edo",
    "country": "Nigeria"
  },
  {
    "code": "BNJ",
    "latitude": "50.7667",
    "longitude": "7.16449",
    "name": "Hangelar",
    "city": "Bonn",
    "state": "North-Rhine-Westphalia",
    "country": "Germany"
  },
  {
    "code": "BNK",
    "latitude": "-28.8342",
    "longitude": "153.555",
    "name": "Ballina Airport",
    "city": "Ballina",
    "state": "New South Wales",
    "country": "Australia"
  },
  {
    "code": "BNN",
    "latitude": "65.462",
    "longitude": "12.2161",
    "name": "Bronnoy Airport",
    "city": "Bronnoysund",
    "state": "Nordland Fylke",
    "country": "Norway"
  },
  {
    "code": "BNS",
    "latitude": "8.6211",
    "longitude": "-70.2181",
    "name": "Barinas Airport",
    "city": "Barinas",
    "state": "Barinas",
    "country": "Venezuela"
  },
  {
    "code": "BNX",
    "latitude": "44.9403",
    "longitude": "17.2992",
    "name": "Banja Luka Airport",
    "city": "Banja Luka",
    "state": "Republika Srpska",
    "country": "Bosnia and Herzegovina",
    "url": "http:\/\/www.banjaluka-airport.com\/"
  },
  {
    "code": "BNY",
    "latitude": "-11.2961",
    "longitude": "159.801",
    "name": "Bellona Airport",
    "city": "Bellona",
    "state": "Central",
    "country": "Solomon Islands"
  },
  {
    "code": "BOB",
    "latitude": "-16.45",
    "longitude": "-151.767",
    "name": "Motu-Mute Airport",
    "city": "Papeete",
    "state": "Leeward Islands",
    "country": "French Polynesia"
  },
  {
    "code": "BOC",
    "latitude": "9.34",
    "longitude": "-82.2514",
    "name": "Bocas del Toro Airport",
    "city": "Bocas del Toro",
    "state": "Bocas del Toro",
    "country": "Panama"
  },
  {
    "code": "BOD",
    "latitude": "44.8291",
    "longitude": "-0.70278",
    "name": "Bordeaux Airport",
    "city": "Merignac",
    "state": "Aquitaine",
    "country": "France"
  },
  {
    "code": "BOG",
    "latitude": "4.69895",
    "longitude": "-74.1435",
    "name": "Eldorado International Airport",
    "city": "Fontib\u00f3n",
    "state": "Distrito Especial",
    "country": "Colombia",
    "url": "http:\/\/www.aerocivil.gov.co\/plan%20maestro\/index.htm"
  },
  {
    "code": "BOH",
    "latitude": "50.7797",
    "longitude": "-1.83424",
    "name": "Bournemouth International Airport",
    "city": "Christchurch",
    "state": "England",
    "country": "United Kingdom",
    "phone": "+44 1202 364 000",
    "url": "http:\/\/www.flybournemouth.com"
  },
  {
    "code": "BOI",
    "latitude": "43.5709",
    "longitude": "-116.222",
    "name": "Boise Air Terminal",
    "city": "Boise",
    "state": "Idaho",
    "country": "United States"
  },
  {
    "code": "BOJ",
    "latitude": "42.5667",
    "longitude": "27.5",
    "name": "Bourgas Airport",
    "city": "Burgas",
    "state": "Burgas",
    "country": "Bulgaria",
    "phone": "+359 56 870248",
    "url": "http:\/\/www.bourgas-airport.com\/"
  },
  {
    "code": "BOM",
    "latitude": "19.0932",
    "longitude": "72.8654",
    "name": "Chhatrapati Shivaji International Airport",
    "city": "Mumbai",
    "state": "Maharashtra",
    "country": "India",
    "url": "http:\/\/www.airportsindia.org.in\/aai\/mumbai\/index.htm"
  },
  {
    "code": "BON",
    "latitude": "12.1392",
    "longitude": "-68.2697",
    "name": "Flamingo Airport",
    "city": "Kralendijk",
    "state": "Bonaire",
    "country": "Netherlands Antilles"
  },
  {
    "code": "BOO",
    "latitude": "67.2709",
    "longitude": "14.3653",
    "name": "Bodo Airport",
    "city": "Bodo",
    "state": "Nordland Fylke",
    "country": "Norway"
  },
  {
    "code": "BOS",
    "latitude": "42.3717",
    "longitude": "-71.0281",
    "name": "Gen E L Logan International Airport",
    "city": "Boston",
    "state": "Massachusetts",
    "country": "United States"
  },
  {
    "code": "BOW",
    "latitude": "27.9493",
    "longitude": "-81.7818",
    "name": "Bartow Municipal Airport",
    "city": "Bartow",
    "state": "Florida",
    "country": "United States"
  },
  {
    "code": "BOY",
    "latitude": "11.1636",
    "longitude": "-4.3264",
    "name": "Bobo Dioulasso Airport",
    "city": "Bobo-Dioulasso",
    "state": "Houet",
    "country": "Burkina Faso"
  },
  {
    "code": "BPN",
    "latitude": "-1.2681",
    "longitude": "116.897",
    "name": "Sepinggan Airport",
    "city": "Balikpapan",
    "state": "Kalimantan Timur",
    "country": "Indonesia"
  },
  {
    "code": "BPS",
    "latitude": "-16.4406",
    "longitude": "-39.0833",
    "name": "Porto Seguro Airport",
    "city": "Porto Seguro",
    "state": "Bahia",
    "country": "Brazil"
  },
  {
    "code": "BPT",
    "latitude": "29.9551",
    "longitude": "-94.0185",
    "name": "Jefferson County Airport",
    "city": "Beaumont",
    "state": "Texas",
    "country": "United States"
  },
  {
    "code": "BPX",
    "latitude": "31.1442",
    "longitude": "97.174",
    "name": "Bangda Airport",
    "city": "Qamdo",
    "state": "Tibet",
    "country": "China"
  },
  {
    "code": "BPY",
    "latitude": "-16.7431",
    "longitude": "44.4803",
    "name": "Besalampy Airport",
    "city": "Besalampy",
    "state": "Mahajanga",
    "country": "Madagascar"
  },
  {
    "code": "BQK",
    "latitude": "31.2525",
    "longitude": "-81.4703",
    "name": "Glynco Jetport Airport",
    "city": "Brunswick",
    "state": "Georgia",
    "country": "United States"
  },
  {
    "code": "BQL",
    "latitude": "-22.9122",
    "longitude": "139.897",
    "name": "Boulia Aerodrome",
    "city": "Boulia",
    "state": "Queensland",
    "country": "Australia"
  },
  {
    "code": "BQN",
    "latitude": "18.496",
    "longitude": "-67.1357",
    "name": "Rafael Hernandez Airport",
    "city": "Aguadilla",
    "state": "Puerto Rico",
    "country": "United States"
  },
  {
    "code": "BQS",
    "latitude": "50.4243",
    "longitude": "127.409",
    "name": "Blagoveshchensk Northwest Airport",
    "city": "Blagoveshchensk",
    "state": "Amurskaya Oblast",
    "country": "Russia"
  },
  {
    "code": "BRA",
    "latitude": "-12.0792",
    "longitude": "-45.01",
    "name": "Barreiras Airport",
    "city": "Barreiras",
    "state": "Bahia",
    "country": "Brazil"
  },
  {
    "code": "BRC",
    "latitude": "-41.1511",
    "longitude": "-71.1581",
    "name": "San Carlos de Bariloche Airport",
    "city": "San Carlos DeBariloche",
    "state": "Santa Fe",
    "country": "Argentina",
    "tz": "America\/Argentina\/Cordoba"
  },
  {
    "code": "BRD",
    "latitude": "46.3909",
    "longitude": "-94.1413",
    "name": "Brainerd-Crow Wing County Regional Airport",
    "city": "Brainerd",
    "state": "Minnesota",
    "country": "United States"
  },
  {
    "code": "BRE",
    "latitude": "53.0523",
    "longitude": "8.78533",
    "name": "Bremen Airport",
    "city": "Bremen",
    "state": "Bremen",
    "country": "Germany",
    "phone": "+49 421 5595-0",
    "url": "http:\/\/www.airport-bremen.de"
  },
  {
    "code": "BRF",
    "latitude": "54.3139",
    "longitude": "-2.23218",
    "name": "United Kingdom",
    "city": "Bradford",
    "state": "",
    "country": "United Kingdom",
    "type": "Railway Stations"
  },
  {
    "code": "BRI",
    "latitude": "41.1376",
    "longitude": "16.7674",
    "name": "Palese Macchie Airport",
    "city": "Bari",
    "state": "Puglia",
    "country": "Italy",
    "url": "http:\/\/www.seap-puglia.it\/"
  },
  {
    "code": "BRK",
    "latitude": "-30.0403",
    "longitude": "145.953",
    "name": "Bourke Airport",
    "city": "Bourke",
    "state": "New South Wales",
    "country": "Australia"
  },
  {
    "code": "BRL",
    "latitude": "40.7816",
    "longitude": "-91.1197",
    "name": "Burlington Municipal Airport",
    "city": "Burlington",
    "state": "Iowa",
    "country": "United States"
  },
  {
    "code": "BRM",
    "latitude": "10.0453",
    "longitude": "-69.3561",
    "name": "Barquisimeto Airport",
    "city": "Barquisimeto",
    "state": "Lara",
    "country": "Venezuela"
  },
  {
    "code": "BRN",
    "latitude": "46.9124",
    "longitude": "7.49929",
    "name": "Bern Belp Airport",
    "city": "Belp",
    "state": "Canton of Berne",
    "country": "Switzerland"
  },
  {
    "code": "BRO",
    "latitude": "25.9064",
    "longitude": "-97.4321",
    "name": "Brownsville-South Padre Island International Air",
    "city": "Brownsville",
    "state": "Texas",
    "country": "United States"
  },
  {
    "code": "BRQ",
    "latitude": "49.1535",
    "longitude": "16.6908",
    "name": "Turany Airport",
    "city": "Brno",
    "state": "Jihomoravsk\u00fd",
    "country": "Czech Republic",
    "url": "http:\/\/www.airport-brno.cz"
  },
  {
    "code": "BRR",
    "latitude": "57.0251",
    "longitude": "-7.44967",
    "name": "North Bay Airport",
    "city": "Barra",
    "state": "England",
    "country": "United Kingdom"
  },
  {
    "code": "BRS",
    "latitude": "51.3848",
    "longitude": "-2.70526",
    "name": "Bristol International Airport",
    "city": "Bristol",
    "state": "England",
    "country": "United Kingdom",
    "url": "http:\/\/www.bristolairport.co.uk"
  },
  {
    "code": "BRU",
    "latitude": "50.899",
    "longitude": "4.4859",
    "name": "Brussels Airport",
    "city": "Bruxelles",
    "state": "Vlaams Brabant",
    "country": "Belgium",
    "phone": "+32 (0) 900 7 0000",
    "url": "http:\/\/www.brusselsairport.be"
  },
  {
    "code": "BRV",
    "latitude": "53.5537",
    "longitude": "8.78359",
    "name": "Bremerhaven Airport",
    "city": "Bad Bederkesa",
    "state": "Lower Saxony",
    "country": "Germany"
  },
  {
    "code": "BRW",
    "latitude": "71.2892",
    "longitude": "-156.772",
    "name": "Wiley Post Will Rogers Memorial Airport",
    "city": "Barrow",
    "state": "Alaska",
    "country": "United States"
  },
  {
    "code": "BSA",
    "latitude": "11.2775",
    "longitude": "49.1814",
    "name": "Somalia",
    "city": "Bossaso",
    "state": "Bari",
    "country": "Somalia"
  },
  {
    "code": "BSB",
    "latitude": "-15.8622",
    "longitude": "-47.9122",
    "name": "Juscelino Kubitschek International Airport",
    "city": "Lago Sul",
    "state": "Distrito Federal",
    "country": "Brazil",
    "url": "http:\/\/www.infraero.gov.br\/"
  },
  {
    "code": "BSC",
    "latitude": "6.1786",
    "longitude": "-77.3956",
    "name": "Jose Celestino Mutis Airport",
    "city": "Bah\u00eda Solano",
    "state": "Choco",
    "country": "Colombia"
  },
  {
    "code": "BSD",
    "latitude": "25.0604",
    "longitude": "99.1639",
    "name": "Baoshan Airport",
    "city": "Baoshan",
    "state": "Yunnan",
    "country": "China"
  },
  {
    "code": "BSG",
    "latitude": "1.9046",
    "longitude": "9.8032",
    "name": "Bata Airport",
    "city": "Bata",
    "state": "Litoral",
    "country": "Equatorial Guinea"
  },
  {
    "code": "BSH",
    "latitude": "50.8333",
    "longitude": "-0.13333",
    "name": "Brighton Airport",
    "city": "Brighton",
    "state": "England",
    "country": "United Kingdom",
    "type": "Railway Stations"
  },
  {
    "code": "BSK",
    "latitude": "34.7933",
    "longitude": "5.74",
    "name": "Biskra Airport",
    "city": "Biskra",
    "state": "Biskra",
    "country": "Algeria"
  },
  {
    "code": "BSL",
    "latitude": "47.5998",
    "longitude": "7.532",
    "name": "Euroairport Basel-Mulhouse-Freiburg",
    "city": "St-Ludwig",
    "state": "Alsace",
    "country": "France"
  },
  {
    "code": "BSO",
    "latitude": "20.4531",
    "longitude": "121.978",
    "name": "Basco Airport",
    "city": "Basco",
    "state": "Cagayan Valley",
    "country": "Philippines"
  },
  {
    "code": "BSR",
    "latitude": "30.5481",
    "longitude": "47.6658",
    "name": "Basrah International Airport",
    "city": "Gawad",
    "state": "Al Basrah",
    "country": "Iraq",
    "type": "Other Airport"
  },
  {
    "code": "BSX",
    "latitude": "45.4264",
    "longitude": "5.14384",
    "name": "Bassein",
    "city": "Bassein",
    "state": "Ayeyarwady",
    "country": "Myanmar"
  },
  {
    "code": "BTH",
    "latitude": "1.1306",
    "longitude": "104.134",
    "name": "Hang Nadim Airport",
    "city": "Batam",
    "state": "Riau",
    "country": "Indonesia"
  },
  {
    "code": "BTI",
    "latitude": "70.1478",
    "longitude": "-143.579",
    "name": "Barter Island Airport",
    "city": "Kaktovik",
    "state": "Alaska",
    "country": "United States"
  },
  {
    "code": "BTJ",
    "latitude": "5.5197",
    "longitude": "95.4181",
    "name": "Blangbintang Airport",
    "city": "Banda Aceh",
    "state": "Aceh",
    "country": "Indonesia"
  },
  {
    "code": "BTK",
    "latitude": "56.1667",
    "longitude": "102.067",
    "name": "Bratsk",
    "city": "Bratsk",
    "state": "Irkutskaya Oblast",
    "country": "Russia"
  },
  {
    "code": "BTL",
    "latitude": "42.3046",
    "longitude": "-85.2448",
    "name": "W K Kellogg Airport",
    "city": "Battle Creek",
    "state": "Michigan",
    "country": "United States"
  },
  {
    "code": "BTM",
    "latitude": "45.9544",
    "longitude": "-112.503",
    "name": "Bert Mooney Airport",
    "city": "Butte",
    "state": "Montana",
    "country": "United States"
  },
  {
    "code": "BTR",
    "latitude": "30.533",
    "longitude": "-91.1567",
    "name": "Baton Rouge Metropolitan Airport",
    "city": "Baton Rouge",
    "state": "Louisiana",
    "country": "United States"
  },
  {
    "code": "BTS",
    "latitude": "48.2063",
    "longitude": "17.2055",
    "name": "Bratislava Airport",
    "city": "Bratislava",
    "state": "Bratislavsky",
    "country": "Slovakia",
    "phone": "+42148571111",
    "email": "information@airportbratislava.sk",
    "url": "http:\/\/www.airportbratislava.sk"
  },
  {
    "code": "BTT",
    "latitude": "66.9134",
    "longitude": "-151.551",
    "name": "Bettles Airport",
    "city": "Bettles",
    "state": "Alaska",
    "country": "United States"
  },
  {
    "code": "BTU",
    "latitude": "3.1728",
    "longitude": "113.043",
    "name": "Bintulu Airport",
    "city": "Bintulu",
    "state": "Sarawak",
    "country": "Malaysia"
  },
  {
    "code": "BTV",
    "latitude": "44.4688",
    "longitude": "-73.1552",
    "name": "Burlington International Airport",
    "city": "South Burlington",
    "state": "Vermont",
    "country": "United States"
  },
  {
    "code": "BTZ",
    "latitude": "40.2344",
    "longitude": "29.0053",
    "name": "Bursa Airport",
    "city": "Bursa",
    "state": "Bursa",
    "country": "Turkey",
    "type": "Other Airport"
  },
  {
    "code": "BUA",
    "latitude": "-5.42232",
    "longitude": "154.673",
    "name": "Buka",
    "city": "Buka",
    "state": "Buka Island",
    "country": "Papua New Guinea"
  },
  {
    "code": "BUC",
    "latitude": "-17.7484",
    "longitude": "139.532",
    "name": "Burketown Aerodrome",
    "city": "Burketown",
    "state": "Queensland",
    "country": "Australia"
  },
  {
    "code": "BUD",
    "latitude": "47.4453",
    "longitude": "19.2195",
    "name": "Ferihegy Airport",
    "city": "Budapest",
    "state": "Budapest",
    "country": "Hungary",
    "phone": "(36) 1 2969696",
    "url": "http:\/\/www.bud.hu"
  },
  {
    "code": "BUF",
    "latitude": "42.9309",
    "longitude": "-78.738",
    "name": "Greater Buffalo International Airport",
    "city": "Buffalo",
    "state": "New York",
    "country": "United States",
    "url": "http:\/\/www.nfta.com\/airport\/"
  },
  {
    "code": "BUL",
    "latitude": "33.9116",
    "longitude": "-102.638",
    "name": "Bulolo",
    "city": "Bulolo",
    "state": "Manus",
    "country": "Papua New Guinea"
  },
  {
    "code": "BUN",
    "latitude": "3.8183",
    "longitude": "-76.9931",
    "name": "Buenaventura Airport",
    "city": "Buenaventura",
    "state": "Valle del Cauca",
    "country": "Colombia"
  },
  {
    "code": "BUO",
    "latitude": "65.8514",
    "longitude": "12.344",
    "name": "Burao",
    "city": "Burao",
    "state": "Togdheer",
    "country": "Somalia"
  },
  {
    "code": "BUQ",
    "latitude": "-20.0169",
    "longitude": "28.6181",
    "name": "Bulawayo Airport",
    "city": "Bulawayo",
    "state": "Matabeleland North",
    "country": "Zimbabwe"
  },
  {
    "code": "BUR",
    "latitude": "34.1963",
    "longitude": "-118.352",
    "name": "Burbank Glendale Pasadena Airport",
    "city": "Burbank",
    "state": "California",
    "country": "United States",
    "url": "http:\/\/www.bobhopeairport.com"
  },
  {
    "code": "BUS",
    "latitude": "50.0662",
    "longitude": "2.96519",
    "name": "Batumi",
    "city": "Batumi",
    "state": "Ajaria",
    "country": "Georgia"
  },
  {
    "code": "BUX",
    "latitude": "1.5717",
    "longitude": "30.2128",
    "name": "Bunia Airport",
    "city": "Bunia",
    "state": "Democratic Republic of",
    "country": "Congo"
  },
  {
    "code": "BUZ",
    "latitude": "28.9494",
    "longitude": "50.8311",
    "name": "Bushehr Airport",
    "city": "Bandar-e Bushehr",
    "state": "Bushehr",
    "country": "Iran"
  },
  {
    "code": "BVA",
    "latitude": "49.4565",
    "longitude": "2.11552",
    "name": "Beauvais-Tille Airport",
    "city": "Beauvais",
    "state": "Picardie",
    "country": "France",
    "type": "Other Airport",
    "url": "http:\/\/www.aeroportbeauvais.com\/"
  },
  {
    "code": "BVB",
    "latitude": "2.8417",
    "longitude": "-60.6917",
    "name": "Boa Vista International Airport",
    "city": "Boa Vista",
    "state": "Nordeste",
    "country": "Brazil"
  },
  {
    "code": "BVC",
    "latitude": "16.0961",
    "longitude": "-22.8172",
    "name": "Boa Vista Airport",
    "city": "Boa Vista",
    "state": "Boa Vista",
    "country": "Cape Verde"
  },
  {
    "code": "BVE",
    "latitude": "45.1487",
    "longitude": "1.47441",
    "name": "La Roche Airport",
    "city": "Brive-la-Gaillarde",
    "state": "Limousin",
    "country": "France",
    "type": "Other Airport"
  },
  {
    "code": "BVG",
    "latitude": "70.8702",
    "longitude": "29.0294",
    "name": "Berlevag Airport",
    "city": "Berlevaag",
    "state": "Finnmark Fylke",
    "country": "Norway"
  },
  {
    "code": "BVH",
    "latitude": "-12.7014",
    "longitude": "-60.0931",
    "name": "Brigadeiro Camarao Airport",
    "city": "Vilhena",
    "state": "Rondonia",
    "country": "Brazil",
    "type": "Other Airport"
  },
  {
    "code": "BVI",
    "latitude": "-25.8971",
    "longitude": "139.349",
    "name": "Birdsville Airport",
    "city": "Birdsville",
    "state": "Queensland",
    "country": "Australia"
  },
  {
    "code": "BWA",
    "latitude": "27.5042",
    "longitude": "83.42",
    "name": "Bhairawa Airport",
    "city": "Bhairawa",
    "state": "West",
    "country": "Nepal"
  },
  {
    "code": "BWE",
    "latitude": "52.3165",
    "longitude": "10.5595",
    "name": "Braunschweig Airport",
    "city": "Braunschweig",
    "state": "Lower Saxony",
    "country": "Germany",
    "type": "Other Airport"
  },
  {
    "code": "BWF",
    "latitude": "54.1284",
    "longitude": "-3.26249",
    "name": "Walney Island Airport",
    "city": "Barrow in Furness",
    "state": "England",
    "country": "United Kingdom"
  },
  {
    "code": "BWI",
    "latitude": "39.1841",
    "longitude": "-76.6745",
    "name": "Baltimore-Washington International Thurgood Mars",
    "city": "Baltimore",
    "state": "Maryland",
    "country": "United States",
    "phone": "410-859-7111",
    "url": "http:\/\/www.bwiairport.com"
  },
  {
    "code": "BWK",
    "latitude": "43.2619",
    "longitude": "16.655",
    "name": "Bol",
    "city": "Bol",
    "state": "Splitsko-Dalmatinska",
    "country": "Croatia",
    "phone": "+385\/21\/559711"
  },
  {
    "code": "BWN",
    "latitude": "4.9458",
    "longitude": "114.924",
    "name": "Brunei International Airport",
    "city": "Bandar Seri Begawan",
    "state": "Brunei and Muara",
    "country": "Brunei"
  },
  {
    "code": "BWT",
    "latitude": "-40.9935",
    "longitude": "145.725",
    "name": "Burnie Wynyard Airport",
    "city": "Doctors Rocks",
    "state": "Tasmania",
    "country": "Australia"
  },
  {
    "code": "BWW",
    "latitude": "22.4922",
    "longitude": "-79.9408",
    "name": "Santa Clara Airport",
    "city": "Santa Clara",
    "state": "",
    "country": "Cuba"
  },
  {
    "code": "BXR",
    "latitude": "29.4375",
    "longitude": "-98.4618",
    "name": "",
    "city": "Bam",
    "state": "Kerman",
    "country": "Iran"
  },
  {
    "code": "BXU",
    "latitude": "8.9528",
    "longitude": "125.476",
    "name": "Butuan Airport",
    "city": "Buenavista",
    "state": "Caraga",
    "country": "Philippines"
  },
  {
    "code": "BYM",
    "latitude": "20.3972",
    "longitude": "-76.6192",
    "name": "Bayamo Airport",
    "city": "Bayamo",
    "state": "Granma",
    "country": "Cuba"
  },
  {
    "code": "BYN",
    "latitude": "62.0526",
    "longitude": "17.1936",
    "name": "",
    "city": "Bayankhongor",
    "state": "Bayanhongor",
    "country": "Mongolia"
  },
  {
    "code": "BZE",
    "latitude": "17.5386",
    "longitude": "-88.3042",
    "name": "Philip S W Goldson International Airport",
    "city": "Hattieville",
    "state": "Belize",
    "country": "Belize"
  },
  {
    "code": "BZG",
    "latitude": "53.0918",
    "longitude": "17.9821",
    "name": "Szwederowo Airport",
    "city": "Bia\u0142e B\u0142ota",
    "state": "Kujawsko-Pomorskie",
    "country": "Poland",
    "url": "http:\/\/www.plb.pl"
  },
  {
    "code": "BZK",
    "latitude": "53.2667",
    "longitude": "34.3333",
    "name": "Briansk",
    "city": "Briansk",
    "state": "Tsentral'Niy",
    "country": "Russian Federation"
  },
  {
    "code": "BZL",
    "latitude": "22.6667",
    "longitude": "90.3417",
    "name": "",
    "city": "Barisal",
    "state": "Barisal",
    "country": "Bangladesh"
  },
  {
    "code": "BZN",
    "latitude": "45.7722",
    "longitude": "-111.157",
    "name": "Gallatin Field Airport",
    "city": "Bozeman",
    "state": "Montana",
    "country": "United States"
  },
  {
    "code": "BZO",
    "latitude": "46.4621",
    "longitude": "11.3282",
    "name": "Bolzano Airport",
    "city": "Botzen",
    "state": "Trentino-Alto Adige",
    "country": "Italy",
    "phone": "+39-0471-255 255",
    "url": "http:\/\/www.abd-airport.it"
  },
  {
    "code": "BZR",
    "latitude": "43.3229",
    "longitude": "3.35466",
    "name": "Vias Airport",
    "city": "Villeneuve",
    "state": "Languedoc-Roussillon",
    "country": "France"
  },
  {
    "code": "BZV",
    "latitude": "-4.2558",
    "longitude": "15.2497",
    "name": "Brazzaville Maya Maya Airport",
    "city": "Brazzaville",
    "state": "Brazzaville",
    "country": "Congo"
  },
  {
    "code": "BZZ",
    "latitude": "51.7614",
    "longitude": "-1.57482",
    "name": "Brize Norton Airport",
    "city": "Carterton",
    "state": "England",
    "country": "United Kingdom",
    "phone": "00 44 1993 842551",
    "type": "Military Airport"
  },
  {
    "code": "CAB",
    "latitude": "-5.59",
    "longitude": "12.1886",
    "name": "Cabinda Airport",
    "city": "Cabinda",
    "state": "Cabinda",
    "country": "Angola"
  },
  {
    "code": "CAC",
    "latitude": "-25.0017",
    "longitude": "-53.5014",
    "name": "Cascavel Airport",
    "city": "Cascavel",
    "state": "Nordeste",
    "country": "Brazil"
  },
  {
    "code": "CAE",
    "latitude": "33.9468",
    "longitude": "-81.1241",
    "name": "Columbia Metropolitan Airport",
    "city": "West Columbia",
    "state": "South Carolina",
    "country": "United States"
  },
  {
    "code": "CAG",
    "latitude": "39.2527",
    "longitude": "9.05813",
    "name": "Elmas Airport",
    "city": "Sardara",
    "state": "Sardinia",
    "country": "Italy"
  },
  {
    "code": "CAH",
    "latitude": "9.17667",
    "longitude": "105.151",
    "name": "Camo",
    "city": "Ca Mau",
    "state": "Ca Mau",
    "country": "Vietnam"
  },
  {
    "code": "CAI",
    "latitude": "30.1206",
    "longitude": "31.4078",
    "name": "Cairo International Airport",
    "city": "Cairo",
    "state": "Al Qahirah",
    "country": "Egypt",
    "url": "http:\/\/www.cairo-airport.com\/"
  },
  {
    "code": "CAK",
    "latitude": "40.9149",
    "longitude": "-81.4309",
    "name": "Akron Canton Regional Airport",
    "city": "Canton",
    "state": "Ohio",
    "country": "United States"
  },
  {
    "code": "CAL",
    "latitude": "55.4388",
    "longitude": "-5.69997",
    "name": "Campbeltown Airport",
    "city": "Campbeltown",
    "state": "Scotland",
    "country": "United Kingdom"
  },
  {
    "code": "CAN",
    "latitude": "23.3925",
    "longitude": "113.299",
    "name": "Baiyun Airport",
    "city": "Guangzhou",
    "state": "Guangdong",
    "country": "China",
    "phone": "0086-020-86120000"
  },
  {
    "code": "CAP",
    "latitude": "19.7328",
    "longitude": "-72.195",
    "name": "Cap Haitien Airport",
    "city": "Cap-Ha\u00eftien",
    "state": "Nord",
    "country": "Haiti",
    "tz": "America\/Port-au-Prince"
  },
  {
    "code": "CAX",
    "latitude": "54.9375",
    "longitude": "-2.8106",
    "name": "Carlisle Airport",
    "city": "Carlisle",
    "state": "England",
    "country": "United Kingdom",
    "phone": "+44 (0)1228 573641",
    "url": "http:\/\/www.carlisleairport.co.uk"
  },
  {
    "code": "CAY",
    "latitude": "4.93333",
    "longitude": "-52.3333",
    "name": "Rochambeau",
    "city": "Cayenne",
    "state": "Cayenne",
    "country": "French Guiana"
  },